{
  "events": [
    {
      "id": 0,
      "type": "a",
      "name": "Flashmob skywalk Phatumwan",
      "by": 3,
      "date": "14-12-2562",
      "place": "สกายวอล์คแยกปทุมวัน กรุงเทพมหานคร",
      "reason": "การแสดงพลังเพื่อ \"ทวงคืนความยุติธรรมสู่ประชาธิปไตย\" จากกรณีการชงเรื่อง \"ยุบพรรคอนาคตใหม่\" ของ กกต. สู่ศาลรัฐธรรมนูญ ซึ่งสะท้อนให้เห็นถึงความพยายามในการใช้กระบวนการกฎหมายและอำนาจอย่างอยุติธรรม อันกระทบต่อประชาชนเจ้าของอำนาจอธิปไตย และแสดงจุดยืนไม่ยอมต่อการกดหัวและระบบการสืบทอดอำนาจของคณะรักษาความสงบแห่งชาติ (คสช.)",
      "demand": "",
      "coordinates": {
        "lat": 13.75,
        "lng": 100.51667
      }
    },
    {
      "id": 1,
      "type": "a",
      "name": "วิ่งไล่ลุง จ.นครศรีธรรมราช",
      "by": 2,
      "date": "12-01-2563",
      "place": "มหาวิทยาลัยวลัยลักษณ์ จ.นครศรีธรรมราช",
      "reason": "ขับไล่รัฐบาลพลเอกประยุทธ์ จันทร์โอชา",
      "demand": "",
      "coordinates": {
        "lat": 8.641422500000001,
        "lng": 99.897373
      }
    },
    {
      "id": 2,
      "type": "a",
      "name": "วิ่งไล่ลุง จ.แพร่",
      "by": 2,
      "date": "12-01-2563",
      "place": " สนามหลวง จ.แพร่",
      "reason": "ขับไล่รัฐบาลพลเอกประยุทธ์ จันทร์โอชา",
      "demand": "",
      "coordinates": {
        "lat": 18.14479675,
        "lng": 100.14138575
      }
    },
    {
      "id": 3,
      "type": "a",
      "name": "วิ่งไล่ลุง สวนสุขภาพสระพลาสติก มหาวิทยาลัยขอนแก่น จ.ขอนแก่น",
      "by": 2,
      "date": "12-01-2563",
      "place": "สวนสุขภาพสระพลาสติก มหาวิทยาลัยขอนแก่น จ.ขอนแก่น",
      "reason": "ขับไล่รัฐบาลพลเอกประยุทธ์ จันทร์โอชา และสร้างพื้นที่ความหลากหลายทางความคิดให้นักศึกษาและประชาชนชาวขอนแก่น",
      "demand": "",
      "coordinates": {
        "lat": 16.475620499999998,
        "lng": 102.82744575000001
      }
    },
    {
      "id": 4,
      "type": "a",
      "name": "วิ่งไล่ลุง บึงพลาญชัย จ.ร้อยเอ็ด",
      "by": 2,
      "date": "12-01-2563",
      "place": "บึงพลาญชัย จ.ร้อยเอ็ด",
      "reason": "ขับไล่รัฐบาลพลเอกประยุทธ์ จันทร์โอชา",
      "demand": "",
      "coordinates": {
        "lat": 13.860498,
        "lng": 100.70539
      }
    },
    {
      "id": 5,
      "type": "a",
      "name": "วิ่งไล่ลุง ลานหน้าพระร่วง โรจนฤทธิ์ องค์พระปฐมเจดีย์ จ.นครปฐม",
      "by": 2,
      "date": "12-01-2563",
      "place": "ลานหน้าพระร่วงโรจนฤทธิ์ องค์พระปฐมเจดีย์ จ.นครปฐม",
      "reason": "ขับไล่รัฐบาลพลเอกประยุทธ์ จันทร์โอชา",
      "demand": "",
      "coordinates": {
        "lat": 13.81953775,
        "lng": 100.060001
      }
    },
    {
      "id": 6,
      "type": "a",
      "name": "วิ่งไล่ลุง อำเภอบางปะกง จ.ฉะเชิงเทรา",
      "by": 2,
      "date": "12-01-2563",
      "place": "อำเภอบางปะกง จ.ฉะเชิงเทรา",
      "reason": "ขับไล่รัฐบาลพลเอกประยุทธ์ จันทร์โอชา",
      "demand": "",
      "coordinates": {
        "lat": 13.6888535,
        "lng": 101.0702835
      }
    },
    {
      "id": 7,
      "type": "a",
      "name": "วิ่งไล่ลุง ฟิวเจอร์ปาร์ค รังสิต จ.ปทุมธานี",
      "by": 2,
      "date": "12-01-2563",
      "place": "ฟิวเจอร์ปาร์ค รังสิต จ.ปทุมธานี",
      "reason": "ขับไล่รัฐบาลพลเอกประยุทธ์ จันทร์โอชา",
      "demand": "",
      "coordinates": {
        "lat": 13.999809,
        "lng": 100.708815
      }
    },
    {
      "id": 8,
      "type": "a",
      "name": "วิ่งไล่ลุง เมืองพัทยา จ.ชลบุรี",
      "by": 2,
      "date": "12-01-2563",
      "place": "เมืองพัทยา จ.ชลบุรี",
      "reason": "ขับไล่รัฐบาลพลเอกประยุทธ์ จันทร์โอชา",
      "demand": "",
      "coordinates": {
        "lat": 13.36162925,
        "lng": 100.98422625
      }
    },
    {
      "id": 9,
      "type": "a",
      "name": "วิ่งไล่ลุง มหาวิทยาลัย บูรพา จ.ชลบุรี",
      "by": 2,
      "date": "12-01-2563",
      "place": "มหาวิทยาลัย บูรพา จ.ชลบุรี",
      "reason": "ขับไล่รัฐบาลพลเอกประยุทธ์ จันทร์โอชา",
      "demand": "",
      "coordinates": {
        "lat": 13.491276732516434,
        "lng": 101.07078506194807
      }
    },
    {
      "id": 10,
      "type": "a",
      "name": "วิ่งไล่ลุง เขื่อนขุนด่าน ปราการชล จ.นครนายก",
      "by": 2,
      "date": "12-01-2563",
      "place": "เขื่อนขุนด่านปราการชล จ.นครนายก",
      "reason": "ขับไล่รัฐบาลพลเอกประยุทธ์ จันทร์โอชา",
      "demand": "",
      "coordinates": {
        "lat": 14.315263,
        "lng": 101.317866
      }
    },
    {
      "id": 11,
      "type": "a",
      "name": "วิ่งไล่ลุง สวนชมน่าน จ.พิษณุโลก",
      "by": 2,
      "date": "12-01-2563",
      "place": "สวนชมน่าน จ.พิษณุโลก",
      "reason": "ขับไล่รัฐบาลพลเอกประยุทธ์ จันทร์โอชา",
      "demand": "",
      "coordinates": {
        "lat": 16.816682,
        "lng": 100.261242
      }
    },
    {
      "id": 12,
      "type": "a",
      "name": "วิ่งไล่ลุง , วิ่งยกลุง สวนสาธารณะสมเด็จ พระศรีนครินทร์ จ.ตรัง",
      "by": 2,
      "date": "12-01-2563",
      "place": "สวนสาธารณะสมเด็จ พระศรีนครินทร์ จ.ตรัง",
      "reason": "ขับไล่รัฐบาลพลเอกประยุทธ์ จันทร์โอชา",
      "demand": "",
      "coordinates": {
        "lat": 7.5573695,
        "lng": 99.61111675000001
      }
    },
    {
      "id": 13,
      "type": "a",
      "name": "วิ่งไล่ลุง สวนวชิรเบญจทัศ (สวนรถไฟ) จ.กรุงเทพมหานคร",
      "by": 2,
      "date": "12-01-2563",
      "place": "สวนวชิรเบญจทัศ (สวนรถไฟ) กรุงเทพมหานคร",
      "reason": "ขับไล่รัฐบาลพลเอกประยุทธ์ จันทร์โอชา เรียกร้องการแก้ปัญหาเศรษฐกิจ แก้ไขรัฐธรรมนูญ และยุติการใช้อำนาจที่เอื้อพวกพ้อง",
      "demand": "",
      "coordinates": {
        "lat": 13.815689,
        "lng": 100.553551
      }
    },
    {
      "id": 14,
      "type": "a",
      "name": "วิ่งไล่ลุง จ.เชียงใหม่",
      "by": 2,
      "date": "12-01-2563",
      "place": " อนุสาวรีย์สามกษัตริย์ จ.เชียงใหม่",
      "reason": "ขับไล่รัฐบาลพลเอกประยุทธ์ จันทร์โอชา",
      "demand": "1. เรียกร้องให้รัฐบาลสนใจความเป็นอยู่ของประชาชน\n2. สื่อสารให้รัฐบาลทราบว่าประชาชนไม่พอใจรัฐบาล",
      "coordinates": {
        "lat": 18.790256,
        "lng": 98.987492
      }
    },
    {
      "id": 15,
      "type": "a",
      "name": "วิ่งไล่ลุง สวนเฉลิมพระเกียรติ อำเภอสตึก จ.บุรีรัมย์",
      "by": 2,
      "date": "12-01-2563",
      "place": "สวนเฉลิมพระเกียรติ อำเภอสตึก จ.บุรีรัมย์",
      "reason": "ขับไล่รัฐบาลพลเอกประยุทธ์ จันทร์โอชา",
      "demand": "",
      "coordinates": {
        "lat": 18.834258,
        "lng": 98.965624
      }
    },
    {
      "id": 16,
      "type": "a",
      "name": "วิ่งไล่ลุง จ.นครศรีธรรมราช",
      "by": 2,
      "date": "12-01-2563",
      "place": " ศาลหลักเมืองจังหวัดนครศรีธรรมราช จ.นครศรีธรรมราช",
      "reason": "ขับไล่รัฐบาลพลเอกประยุทธ์ จันทร์โอชา",
      "demand": "",
      "coordinates": {
        "lat": 8.428875,
        "lng": 99.961918
      }
    },
    {
      "id": 17,
      "type": "a",
      "name": "วิ่งไล่ลุง จ.นครศรีธรรมราช",
      "by": 2,
      "date": "12-01-2563",
      "place": "สนามหน้าเมือง จ.นครศรีธรรมราช",
      "reason": "ขับไล่รัฐบาลพลเอกประยุทธ์ จันทร์โอชา และขยายพื้นที่สาธารณะและพูดคุยระหว่างผู้เข้าร่วมในกิจกรรม\nที่สร้างสรรค์",
      "demand": " ",
      "coordinates": {
        "lat": 8.617113487857864,
        "lng": 100.02408864381337
      }
    },
    {
      "id": 18,
      "type": "a",
      "name": "วิ่งไล่ลุง ทุ่งศรีเมือง จ.อุบลราชธานี",
      "by": 2,
      "date": "12-01-2563",
      "place": "บริเวณทุ่งศรีเมือง จ.อุบลราชธานี",
      "reason": "ขับไล่รัฐบาลพลเอกประยุทธ์ จันทร์โอชา",
      "demand": "",
      "coordinates": {
        "lat": 15.190143,
        "lng": 104.81798
      }
    },
    {
      "id": 19,
      "type": "a",
      "name": "วิ่งไล่ลุง จากริมเขื่อนหลังศาลากลาง จังหวัดนครสวรรค์ จ.นครสวรรค์ ไปยังตลาดศรีนคร จ.นครสวรรค์",
      "by": 2,
      "date": "12-01-2563",
      "place": " ตลาดศรีนคร จ.นครสวรรค์",
      "reason": "ขับไล่รัฐบาลพลเอกประยุทธ์ จันทร์โอชา",
      "demand": "",
      "coordinates": {
        "lat": 15.537086,
        "lng": 100.126372
      }
    },
    {
      "id": 20,
      "type": "a",
      "name": "วิ่งไล่ลุง จากหอนาฬิกา จังหวัดมหาสารคาม ไปยัง เสริมไทยคอมเพล็กซ์ จ.มหาสารคาม",
      "by": 2,
      "date": "12-01-2563",
      "place": " เสริมไทยคอมเพล็กซ์ จ.มหาสารคาม",
      "reason": "ขับไล่รัฐบาลพลเอกประยุทธ์ จันทร์โอชา,ให้ พล.อ.ประยุทธ์ลาออกจากตำแหน่ง, \nยุบสภาแล้วเลือกตั้งใหม่, สว. มาจากการเลือกตั้งและยุติบทบาท, \nรัฐธรรมนูญมาจากประชาชน, ประชาชนมีสิทธิในการแสดงออกทางการเมือง",
      "demand": "1. พลเอกประยุทธ์ลาออกจากตำแหน่ง\n2. ยุบสภาแล้วเลือกตั้งใหม่\n3. สว. มาจากการเลือกตั้งและให้ สว. ชุดปัจจุบันยุติบทบาท\n4. รัฐธรรมนูญมาจากประชาชน\n5. ประชาชนมีสิทธิในการแสดงออกทางการเมือง",
      "coordinates": {
        "lat": 16.201729,
        "lng": 103.276305
      }
    },
    {
      "id": 21,
      "type": "a",
      "name": "วิ่งไล่ลุง  สวนสมเด็จพระศรีนครินทร์ ปัตตานี จ.ปัตตานี",
      "by": 2,
      "date": "12-01-2563",
      "place": "สวนสมเด็จพระศรีนครินทร์ ปัตตานี จ.ปัตตานี",
      "reason": "ขับไล่รัฐบาลพลเอกประยุทธ์ จันทร์โอชา",
      "demand": "",
      "coordinates": {
        "lat": 6.89249,
        "lng": 101.245569
      }
    },
    {
      "id": 22,
      "type": "a",
      "name": "กิจกรรมต่อต้านการใช้ศาล กดหัวประชาชน",
      "by": 2,
      "date": "19-02-2563",
      "place": "มหาวิทยาลัยธรรมศาสตร์ ท่าพระจันทร์ กรุงเทพมหานคร",
      "reason": "คัดค้านการใช้อำนาจตุลาการหรือศาลรัฐธรรมนูญในการยุบพรรคการเมือง",
      "demand": "",
      "coordinates": {
        "lat": 13.757073,
        "lng": 100.48996199999999
      }
    },
    {
      "id": 23,
      "type": "a",
      "name": "กิจกรรมจุดเทียนเป็นรูปตราชั่ง บนพื้นถนน หลังพรรคอนาคตใหม่ถูกยุบ",
      "by": 2,
      "date": "21-02-2563",
      "place": "อ่างแก้ว มหาวิทยาลัยเชียงใหม่ จ.เชียงใหม่",
      "reason": "แสดงความคิดเห็นต่อการทำงานของศาลรัฐธรรมนูญในการยุบพรรคอนาคตใหม่",
      "demand": "",
      "coordinates": {
        "lat": 18.790553,
        "lng": 98.960528
      }
    },
    {
      "id": 24,
      "type": "a",
      "name": "รวมพลังสานต่อภารกิจอนาคตใหม่ ค่ำคืนนี้อีกยาวนานนัก",
      "by": 3,
      "date": "21-02-2563",
      "place": "อาคารไทยซัมมิท กรุงเทพมหานคร",
      "reason": "เพื่อพูดถึงแนวทางการขับเคลื่อนทางการเมืองของพรรคอนาคตใหม่ต่อไป\nหลังจากถูกศาลรัฐธรรมนูญยุบพรรค",
      "demand": "",
      "coordinates": {
        "lat": 13.905554893609555,
        "lng": 100.5343503258518
      }
    },
    {
      "id": 25,
      "type": "a",
      "name": "แฟลชม็อบประเทศนี้ไม่มี ความยุติธรรม",
      "by": 1,
      "date": "22-02-2563",
      "place": "ลานปรีดี พนมยงค์ มหาวิทยาลัยธรรมศาสตร์ ท่าพระจันทร์ กรุงเทพมหานคร",
      "reason": "แสดงความคิดเห็นต่อการทำงานของศาลรัฐธรรมนูญในการยุบพรรคอนาคตใหม่\n",
      "demand": "",
      "coordinates": {
        "lat": 13.757604,
        "lng": 100.489616
      }
    },
    {
      "id": 26,
      "type": "a",
      "name": "ชูป้าย \"หยุดความอยุติธรรม\"",
      "by": 1,
      "date": "22-02-2563",
      "place": "อ่างแก้ว มหาวิทยาลัยเชียงใหม่ จ.เชียงใหม่",
      "reason": "แสดงความคิดเห็นต่อการทำงานของศาลรัฐธรรมนูญในการยุบพรรคอนาคตใหม่\nและให้กำลังใจพรรคอนาคตใหม่",
      "demand": "",
      "coordinates": {
        "lat": 19.004387969107103,
        "lng": 99.03318533627665
      }
    },
    {
      "id": 27,
      "type": "a",
      "name": "ร่วมกันใส่ชุดดำไว้อาลัยให้ประชาธิปไตย",
      "by": 1,
      "date": "22-02-2563",
      "place": "มหาวิทยาลัยนเรศวร จ.พิษณุโลก",
      "reason": "ไว้อาลัยแก่ประชาธิปไตยและเหตุการณ์การยุบพรรคอนาคตใหม่",
      "demand": "",
      "coordinates": {
        "lat": 16.747737,
        "lng": 100.190192
      }
    },
    {
      "id": 28,
      "type": "a",
      "name": "จุดเทียนเขียนคืนความยุติธรรม",
      "by": 1,
      "date": "23-02-2563",
      "place": "มหาวิทยาลัยบูรพา จ.ชลบุรี",
      "reason": "เรียกร้องกรณีการตัดสินยุบพรรคอนาคตใหม่ที่ไม่ยุติธรรม และการจับกุมผู้ใช้ทวิตเตอร์ \"นิรนาม\" โดยกฎหมายที่จำกัดสิทธิเสรีภาพและไม่เป็นธรรม",
      "demand": "",
      "coordinates": {
        "lat": 12.614345499999999,
        "lng": 101.93036950000001
      }
    },
    {
      "id": 29,
      "type": "a",
      "name": "อ่านแถลงการณ์แสดงความเสียใจต่อ การยุบอนาคตใหม่",
      "by": 1,
      "date": "23-02-2563",
      "place": "มหาวิทยาลัยสงขลานครินทร์ วิทยาเขตปัตตานี จ.ปัตตานี",
      "reason": "แสดงความเสียใจต่อพรรคอนาคตใหม่และแสดงความเป็นห่วงความขัดแย้งในสังคม",
      "demand": "",
      "coordinates": {
        "lat": 7.893774,
        "lng": 98.35337
      }
    },
    {
      "id": 30,
      "type": "a",
      "name": "จุฬาฯรวมพล #CUassemble ..เพราะ เกียรติภูมิจุฬา คือ เกียรติแห่ง การรับใช้ประชาชน",
      "by": 1,
      "date": "24-02-2563",
      "place": "หอประชุมจุฬาลงกรณ์มหาวิทยาลัย กรุงเทพมหานคร",
      "reason": "แสดงความคิดเห็นต่อการทำงานของศาลรัฐธรรมนูญในการยุบพรรคอนาคตใหม่ \nและขับไล่รัฐบาล พลเอกประยุทธ์ จันทร์โอชา",
      "demand": "",
      "coordinates": {
        "lat": 13.7368885,
        "lng": 100.53213550000001
      }
    },
    {
      "id": 31,
      "type": "a",
      "name": "#มอกะเสดไม่ใช่ขนมหวานราดกะทิ",
      "by": 1,
      "date": "24-02-2563",
      "place": "หอประชุมใหญ่ มหาวิทยาลัยเกษตรศาสตร์ บางเขน กรุงเทพมหานคร",
      "reason": "วิจารณ์การทำงานของรัฐบาล พลเอกประยุทธ์ จันทร์โอชา",
      "demand": "",
      "coordinates": {
        "lat": 13.8478555,
        "lng": 100.56887950000001
      }
    },
    {
      "id": 32,
      "type": "a",
      "name": "จุดเทียนปราศรัย ประชาธิปไตย? แฟลชม็อบ",
      "by": 1,
      "date": "24-02-2563",
      "place": "มหาวิทยาลัยศิลปากร วิทยาเขตพระราชวังสนามจันทร์ จ.นครปฐม",
      "reason": "วิจารณ์การทำงานของรัฐบาล พลเอกประยุทธ์ จันทร์โอชา",
      "demand": "",
      "coordinates": {
        "lat": 13.817555,
        "lng": 100.042141
      }
    },
    {
      "id": 33,
      "type": "a",
      "name": "#กันเกราไม่เอากะลา",
      "by": 1,
      "date": "25-02-2563",
      "place": "จ.อุบลราชธานี",
      "reason": "วิจารณ์การทำงานของรัฐบาลและแสดงความคิดเห็นต่อกรณีศาลรัฐธรรมนูญตัดสินยุบพรรคอนาคตใหม่",
      "demand": "",
      "coordinates": {
        "lat": 15.389609487420255,
        "lng": 104.83287397863656
      }
    },
    {
      "id": 34,
      "type": "a",
      "name": "#BUกูไม่ใช่สลิ่ม",
      "by": 1,
      "date": "25-02-2563",
      "place": "มหาวิทยาลัยกรุงเทพ จ.ปทุมธานี",
      "reason": "วิจารณ์การทำงานของรัฐบาลและขับไล่รัฐบาล พลเอกประยุทธ์ จันทร์โอชา",
      "demand": "",
      "coordinates": {
        "lat": 14.03973,
        "lng": 100.614847
      }
    },
    {
      "id": 35,
      "type": "a",
      "name": "#มหาวิทยาลัยปลูกกัญชานักศึกษาไม่กินสลิ่ม",
      "by": 1,
      "date": "25-02-2563",
      "place": "มหาวิทยาลัยแม่โจ้ จ.เชียงใหม่",
      "reason": "แสดงออกถึงพลังรักประชาธิปไตย ต่อต้านเผด็จการ",
      "demand": "",
      "coordinates": {
        "lat": 9.772416,
        "lng": 99.14022
      }
    },
    {
      "id": 36,
      "type": "a",
      "name": "#ช้างเผือกจะไม่ทน",
      "by": 1,
      "date": "25-02-2563",
      "place": "ศาลาธรรม มหาวิทยาลัยเชียงใหม่ จ.เชียงใหม่",
      "reason": "เรียกร้องให้นายกรัฐมนตรีลาออกและให้ยุบสภา",
      "demand": "1. นายกรัฐมนตรีลาออก\n2. ยุบสภา เลือกตั้งใหม่",
      "coordinates": {
        "lat": 13.784832,
        "lng": 100.371362
      }
    },
    {
      "id": 37,
      "type": "a",
      "name": "#นิด้ามาน้อยแต่มาโว้ย",
      "by": 1,
      "date": "26-02-2563",
      "place": "สถาบันบัณฑิตพัฒนบริหารศาสตร์ กรุงเทพมหานคร",
      "reason": "ขับไล่รัฐบาลพลเอกประยุทธ์ จันทร์โอชา",
      "demand": "",
      "coordinates": {
        "lat": 13.770179,
        "lng": 100.65333150000001
      }
    },
    {
      "id": 38,
      "type": "a",
      "name": "#มขพอกันที",
      "by": 1,
      "date": "26-02-2563",
      "place": "บึงสีฐาน มหาวิทยาลัยขอนแก่น จ.ขอนแก่น",
      "reason": "วิจารณ์การทำงานและขับไล่รัฐบาลพลเอกประยุทธ์ จันทร์โอชา",
      "demand": "",
      "coordinates": {
        "lat": 16.51084212221286,
        "lng": 102.84685008034883
      }
    },
    {
      "id": 39,
      "type": "a",
      "name": "มศว. องครักษ์ ไว้อาลัย \"ประชาธิปไตย\"",
      "by": 1,
      "date": "26-02-2563",
      "place": "มหาวิทยาลัยศรีนครินทรวิโรฒ องครักษ์ จ.นครนายก",
      "reason": "ไว้อาลัย \"ประชาธิปไตย\"",
      "demand": "",
      "coordinates": {
        "lat": 13.745453999999999,
        "lng": 100.5654945
      }
    },
    {
      "id": 40,
      "type": "a",
      "name": "#เด็กเดชฯ อยากเนรเทศเผด็จการ",
      "by": 1,
      "date": "26-02-2563",
      "place": "หน้าโรงเรียนเดชอุดม จ.อุบลราชธานี",
      "reason": "ประกาศจุดยืนต่อต้านเผด็จการ",
      "demand": "",
      "coordinates": {
        "lat": 15.382350790627749,
        "lng": 104.89998968635393
      }
    },
    {
      "id": 41,
      "type": "a",
      "name": "#ราชภัฏอยากงัดกับสลิ่ม",
      "by": 1,
      "date": "26-02-2563",
      "place": "มหาวิทยาลัยราชภัฏพิบูลสงคราม จ.พิษณุโลก",
      "reason": "รวมตัวแสดงออกถึงประชาธิปไตย และขับไล่รัฐบาล พลเอกประยุทธ์ จันทร์โอชา",
      "demand": "",
      "coordinates": {
        "lat": 16.829641875,
        "lng": 100.20910393749999
      }
    },
    {
      "id": 42,
      "type": "a",
      "name": "#สวที่อยู่ข้างประชาธิปไตย",
      "by": 1,
      "date": "26-02-2563",
      "place": "โรงเรียนสตรีวิทยา กรุงเทพมหานคร",
      "reason": "เพื่อร่วมแสดงออกทางการเมือง",
      "demand": "",
      "coordinates": {
        "lat": 13.7574505,
        "lng": 100.5018305
      }
    },
    {
      "id": 43,
      "type": "a",
      "name": "#ดอกจานบานที่อุดรบ่ออนซอนเผด็จการ",
      "by": 1,
      "date": "26-02-2563",
      "place": "มหาวิทยาลัยราชภัฏอุดรธานี จ.อุดรธานี",
      "reason": "แสดงความกังวลต่อกรณีการยุบพรรคอนาคตใหม่และการทำงานของรัฐบาล พลเอกประยุทธ์ จันทร์โอชา",
      "demand": "",
      "coordinates": {
        "lat": 17.3976195,
        "lng": 102.793637
      }
    },
    {
      "id": 44,
      "type": "a",
      "name": "#ศิลปากรขอมีซีน",
      "by": 2,
      "date": "26-02-2563",
      "place": "มหาวิทยาลัยศิลปากร วิทยาเขตพระราชวังสนามจันทร์ จ.นครปฐม",
      "reason": "ขับไล่รัฐบาล พลเอกประยุทธ์ จันทร์โอชา",
      "demand": "",
      "coordinates": {
        "lat": 13.86343235542396,
        "lng": 100.0767914222041
      }
    },
    {
      "id": 45,
      "type": "a",
      "name": "#วังท่าพระไม่สายลมแสงแดด",
      "by": 1,
      "date": "26-02-2563",
      "place": "ลาน อ.ศิลป์ พีระศรี มหาวิทยาลัยศิลปากร วังท่าพระ กรุงเทพมหานคร",
      "reason": "วิจารณ์การทำงานของรัฐบาล วิจารณ์ศาลรัฐธรรมนูญในการยุบพรรคอนาคตใหม่ ",
      "demand": "เรียกร้องให้แก้ไขรัฐธรรมนูญ",
      "coordinates": {
        "lat": 13.7528535,
        "lng": 100.49039400000001
      }
    },
    {
      "id": 46,
      "type": "a",
      "name": "#ศิลป์เพชรไม่เงียบ",
      "by": 1,
      "date": "26-02-2563",
      "place": "มหาวิทยาลัยศิลปากร วิทยาเขตสารสนเทศเพชรบุรี จ.เพชรบุรี",
      "reason": "แสดงจุดยืนว่าต้องการประชาธิปไตย",
      "demand": "",
      "coordinates": {
        "lat": 12.654118,
        "lng": 99.863429
      }
    },
    {
      "id": 47,
      "type": "a",
      "name": "#ขอกู้คืนเกียรติ คนยังยืนโดดเด่นโดยท้าทาย",
      "by": 1,
      "date": "26-02-2563",
      "place": "มหาวิทยาลัยวลัยลักษณ์ จ.นครศรีธรรมราช",
      "reason": "-",
      "demand": "",
      "coordinates": {
        "lat": 8.785227488006532,
        "lng": 99.97321815876445
      }
    },
    {
      "id": 48,
      "type": "a",
      "name": "#หนังสือก็ต้องอ่านของหวานไม่ชอบกิน",
      "by": 1,
      "date": "26-02-2563",
      "place": "สถาบันเทคโนโลยีพระจอมเกล้า เจ้าคุณทหารลาดกระบัง กรุงเทพมหานคร",
      "reason": "แสดงจุดยืนต่อต้านความไม่เป็นประชาธิปไตย จากกรณีศาลรัฐธรรมนูญตัดสิน\nยุบพรรคอนาคตใหม่",
      "demand": "",
      "coordinates": {
        "lat": 13.727032999999999,
        "lng": 100.779091
      }
    },
    {
      "id": 49,
      "type": "a",
      "name": "#มอออตานีขยี้รอบสอง แฟลชม็อบจากรูสะมิแล ไม่แคร์เผด็จการ",
      "by": 1,
      "date": "26-02-2563",
      "place": "ตึกกิจกรรมนักศึกษา มหาวิทยาลัยสงขลานครินทร์ วิทยาเขตปัตตานี จ.ปัตตานี",
      "reason": "วิจารณ์การทำงานของรัฐบาลพลเอกประยุทธ์ จันทร์โอชา เรียกร้องประชาธิปไตยเเละสังคมที่เป็นธรรม",
      "demand": "1. ให้มีการเลือกตั้งสมาชิกสภาร่างรัฐธรรมนูญเพื่อให้มีการร่างรัฐธรรมนูญและเปิดให้มีการลงประชามติร่างรัฐธรรมนูญ\n2. ให้ผู้ดำรงตำแหน่งในองค์กรอิสระที่ได้รับการแต่งตั้งหรือขยายระยะเวลาการดำรงตำแหน่งจากคสช. ลาออก\n3. ให้พล.อ.ประยุทธ์ จันทร์โอชา นายกรัฐมนตรีลาออกจากตำแหน่ง",
      "coordinates": {
        "lat": 7.896439015864642,
        "lng": 98.39314958174019
      }
    },
    {
      "id": 50,
      "type": "a",
      "name": "#ธรรมศาสตร์และการชุมนุม",
      "by": 1,
      "date": "26-02-2563",
      "place": "ลานพญานาค มหาวิทยาลัยธรรมศาสตร์ รังสิต จ.ปทุมธานี",
      "reason": "วิจารณ์การทำงานและขับไล่รัฐบาลพลเอกประยุทธ์ จันทร์โอชา และเรียกร้องประชาธิปไตย",
      "demand": "",
      "coordinates": {
        "lat": 14.068087,
        "lng": 100.601322
      }
    },
    {
      "id": 51,
      "type": "a",
      "name": "#มศวขอมีจุดยืน",
      "by": 1,
      "date": "26-02-2563",
      "place": "มหาวิทยาลัยศรีนครินทรวิโรฒ ประสานมิตร กรุงเทพมหานคร",
      "reason": "วิจารณ์การทำงานของรัฐบาลพลเอกประยุทธ์ จันทร์โอชา และศาลรัฐธรรมนูญ",
      "demand": "",
      "coordinates": {
        "lat": 13.919899597988463,
        "lng": 100.62952579233482
      }
    },
    {
      "id": 52,
      "type": "a",
      "name": "#ทีมลูกระนาดอยากจะฟาดบ้างแม่",
      "by": 1,
      "date": "26-02-2563",
      "place": "หอประชุมธํารง บัวศรี มหาวิทยาลัยบูรพา จ.ชลบุรี",
      "reason": "เพื่อแสดงออกคัดค้านความไม่เป็นธรรมและรัฐบาลเผด็จการ",
      "demand": "",
      "coordinates": {
        "lat": 12.628572370445916,
        "lng": 102.00286578933365
      }
    },
    {
      "id": 53,
      "type": "a",
      "name": "#ลูกแม่ไทรไม่เอาเผด็จการ",
      "by": 1,
      "date": "26-02-2563",
      "place": "มหาวิทยาลัยหอการค้าไทย กรุงเทพมหานคร",
      "reason": "วิจารณ์การทำงานของรัฐบาล พลเอกประยุทธ์ จันทร์โอชา",
      "demand": "",
      "coordinates": {
        "lat": 13.7789665,
        "lng": 100.5602125
      }
    },
    {
      "id": 54,
      "type": "a",
      "name": "#ศาลาวีรชนจะไม่ใช่ที่หลบฝนอีกต่อไป",
      "by": 1,
      "date": "27-02-2563",
      "place": "มหาวิทยาลัยพระจอมเกล้าธนบุรี กรุงเทพมหานคร",
      "reason": "เรียกร้องให้ประเทศเป็นประชาธิปไตยอย่างแท้จริง",
      "demand": "",
      "coordinates": {
        "lat": 13.860145197782032,
        "lng": 100.5444090669717
      }
    },
    {
      "id": 55,
      "type": "a",
      "name": "#ราชมงคลอีสานต่อต้านเผด็จการ",
      "by": 1,
      "date": "27-02-2563",
      "place": "มหาวิทยาลัยเทคโนโลยีราชมงคล อีสาน จ.นครราชสีมา",
      "reason": "วิจารณ์การทำงานของรัฐบาลพลเอกประยุทธ์ จันทร์โอชา และศาลรัฐธรรมนูญ",
      "demand": "",
      "coordinates": {
        "lat": 16.433001,
        "lng": 102.864823
      }
    },
    {
      "id": 56,
      "type": "a",
      "name": "#รังสิตขับไล่เผด็จการ",
      "by": 1,
      "date": "27-02-2563",
      "place": "มหาวิทยาลัยรังสิต จ.ปทุมธานี",
      "reason": "ขับไล่รัฐบาลเผด็จการของพลเอกประยุทธ์ จันทร์โอชา",
      "demand": "",
      "coordinates": {
        "lat": 13.964903,
        "lng": 100.5866575
      }
    },
    {
      "id": 57,
      "type": "a",
      "name": "#ลูกพ่อขุนไม่รับใช้เผด็จการ",
      "by": 1,
      "date": "27-02-2563",
      "place": "มหาวิทยาลัยรามคำแหง กรุงเทพมหานคร",
      "reason": "เรียกร้องให้แก้รัฐธรรมนูญ ให้ผู้ดำรงตำแหน่งในองค์กรอิสระที่ได้รับการแต่งตั้งในสมัยรัฐประหารลาออก และให้นายกรัฐมนตรีลาออก",
      "demand": "1. ให้ร่างรัฐธรรมนูญใหม่ทั้งฉบับ โดยสภาร่างรัฐธรรมนูญ (สสร.) รับฟังความคิดเห็นอย่างอิสระ และทำประชามติ\n2. ให้นายกรัฐมนตรีต้องลาออก \n3. ผู้ดำรงตำแหน่งในองค์กรอิสระ ที่ได้รับการแต่งตั้งในสมัยรัฐประหารลาออก",
      "coordinates": {
        "lat": 13.756304,
        "lng": 100.6198315
      }
    },
    {
      "id": 58,
      "type": "a",
      "name": "#มมสไม่เอาเผด็จการ",
      "by": 1,
      "date": "27-02-2563",
      "place": "มหาวิทยาลัยมหาสารคาม จ.มหาสารคาม",
      "reason": "ขับไล่รัฐบาลพลเอกประยุทธ์ จันทร์โอชา และเรียกร้องให้ร่างรัฐธรรมนูญฉบับใหม่",
      "demand": "1. นายกรัฐมนตรีลาออก\n2. ร่างรัฐธรรมนูญฉบับใหม่ที่เป็นของประชาชน ",
      "coordinates": {
        "lat": 16.247062,
        "lng": 103.248482
      }
    },
    {
      "id": 59,
      "type": "a",
      "name": "#สวนสุนันทาไม่เป็นขี้ข้าเผด็จการ",
      "by": 1,
      "date": "27-02-2563",
      "place": "มหาวิทยาลัยราชภัฏสวนสุนันทา กรุงเทพมหานคร",
      "reason": "แสดงจุดยืนทางการเมืองเพื่อเรียกร้องความเป็นธรรมให้พรรคอนาคตใหม่ จากการที่ศาลรัฐธรรมนูญวินิจฉัยให้ยุบพรรคอนาคตใหม่ และผลักดันประชาธิปไตย",
      "demand": "",
      "coordinates": {
        "lat": 13.77694,
        "lng": 100.508743
      }
    },
    {
      "id": 60,
      "type": "a",
      "name": "#เกียมอุดมไม่ก้มหัวให้เผด็จการ",
      "by": 1,
      "date": "27-02-2563",
      "place": "โรงเรียนเตรียมอุดมศึกษา กรุงเทพมหานคร",
      "reason": "เรียกร้องให้มีรัฐบาลที่มาจากเสียงของประชาชนอย่างแท้จริง",
      "demand": "",
      "coordinates": {
        "lat": 13.740839000000001,
        "lng": 100.5322875
      }
    },
    {
      "id": 61,
      "type": "a",
      "name": "#มธศูนย์ป่าปงเกลียดเผด็จการ",
      "by": 1,
      "date": "27-02-2563",
      "place": "มหาวิทยาลัยธรรมศาสตร์ ศูนย์ลำปาง จ.ลำปาง",
      "reason": "วิจารณ์การทำงานของรัฐบาลและศาลรัฐธรรมนูญกรณียุบพรรคอนาคตใหม่",
      "demand": "",
      "coordinates": {
        "lat": 13.833047962363311,
        "lng": 100.50664535626811
      }
    },
    {
      "id": 62,
      "type": "a",
      "name": "#spuไม่กล้าขยับอยู่ใกล้ราบ11",
      "by": 1,
      "date": "27-02-2563",
      "place": "มหาวิทยาลัยศรีปทุม กรุงเทพมหานคร",
      "reason": "วิจารณ์การทำงานของรัฐบาลและศาลรัฐธรรมนูญกรณียุบพรรคอนาคตใหม่",
      "demand": "",
      "coordinates": {
        "lat": 13.8550295,
        "lng": 100.58534900000001
      }
    },
    {
      "id": 63,
      "type": "a",
      "name": "#ตีนดอยjoinชุมนุม",
      "by": 1,
      "date": "27-02-2563",
      "place": "มหาวิทยาลัยเทคโนโลยีราชมงคล ล้านนา วิทยาเขตภาคพายัพ จ.เชียงใหม่",
      "reason": "เกี่ยวกับความไม่ชอบธรรมของรัฐบาลพลเอกประยุทธ์ จันทร์โอชา และศาลรัฐธรรมนูญ",
      "demand": "1. ให้นายกรัฐมนตรีลาออก \n2. ให้ทำการยุบสภาเพื่อเลือกตั้งใหม่",
      "coordinates": {
        "lat": 16.57188955041509,
        "lng": 102.9618986560202
      }
    },
    {
      "id": 64,
      "type": "a",
      "name": "#อิงโขงไม่อิงเผด็จการ",
      "by": 1,
      "date": "27-02-2563",
      "place": "คณะศิลปศาสตร์ มหาวิทยาลัย นครพนม จ.นครพนม",
      "reason": "วิจารณ์การทำงานและขับไล่รัฐบาลพลเอกประยุทธ์ จันทร์โอชา และแสดงความคิดเห็นต่อศาลรัฐธรรมนูญกรณีตัดสินยุบพรรคอนาคตใหม่",
      "demand": "",
      "coordinates": {
        "lat": 17.40885475,
        "lng": 104.779916875
      }
    },
    {
      "id": 65,
      "type": "a",
      "name": "#KUหน้าทะเลหลังเขาไม่เอาลุง",
      "by": 1,
      "date": "27-02-2563",
      "place": "มหาวิทยาลัยเกษตรศาสตร์ วิทยาเขตศรีราชา จ.ชลบุรี",
      "reason": "เพื่อแสดงความไม่เห็นด้วยกรณีมีการยุบพรรคอนาคตใหม่",
      "demand": "",
      "coordinates": {
        "lat": 14.072373788018183,
        "lng": 100.61236182861215
      }
    },
    {
      "id": 66,
      "type": "a",
      "name": "กิจกรรมชูป้ายของนักศึกษามหาวิทยาลัย สงขลานครินทร์ วิทยาเขตสุราษฎร์ธานี",
      "by": 1,
      "date": "27-02-2563",
      "place": "มหาวิทยาลัยสงขลานครินทร์ วิทยาเขตสุราษฎร์ธานี จ.สุราษฎร์ธานี",
      "reason": "-",
      "demand": "",
      "coordinates": {
        "lat": 7.0096475,
        "lng": 100.496065
      }
    },
    {
      "id": 67,
      "type": "a",
      "name": "#ฝุ่น6ล้านหรือจะสู้ท่าน9เสียง",
      "by": 1,
      "date": "27-02-2563",
      "place": "มหาวิทยาลัยสงขลานครินทร์ จ.สงขลา",
      "reason": "เรียกร้องประชาธิปไตยและอำนาจเป็นของประชาชน",
      "demand": "",
      "coordinates": {
        "lat": 6.522809,
        "lng": 100.418064
      }
    },
    {
      "id": 68,
      "type": "a",
      "name": "กิจกรรมจุดเทียนทวงคืนอนาคต",
      "by": 1,
      "date": "27-02-2563",
      "place": "มหาวิทยาลัยเทคโนโลยี ราชมงคลอีสาน วิทยาเขตสุรินทร์ จ.สุรินทร์",
      "reason": "แสดงความไม่พอใจกับการบริหารประเทศของรัฐบาลพลเอกประยุทธ์ จันทร์โอชา และคำตัดสินของศาลรัฐธรรมนูญที่ให้ยุบพรรคอนาคตใหม่",
      "demand": "",
      "coordinates": {
        "lat": 14.889134,
        "lng": 103.496513
      }
    },
    {
      "id": 69,
      "type": "a",
      "name": "#สระแก้วทนไม่ไหว",
      "by": 2,
      "date": "27-02-2563",
      "place": "พระสยามเทวาธิราชจำลอง อำเภออรัญประเทศ จ.สระแก้ว",
      "reason": "-",
      "demand": "1. ขอให้รัฐบาลยุบสภา\n2. ให้รัฐบาลหยุดคุกคามคนเห็นต่าง \n3. เรียกร้องให้ร่างรัฐธรรมนูญขึ้นมาใหม่",
      "coordinates": {
        "lat": 13.771251,
        "lng": 102.079441
      }
    },
    {
      "id": 70,
      "type": "a",
      "name": "แฟลชม็อบพระจอมเกล้าไม่เอาเผด็จการ",
      "by": 1,
      "date": "28-02-2563",
      "place": "มหาวิทยาลัยเทคโนโลยี พระจอมเกล้าพระนครเหนือ วิทยาเขตปราจีนบุรี จ.ปราจีนบุรี",
      "reason": "แสดงจุดยืนต่อต้านเผด็จการ เรียกร้องประชาธิปไตย และแก้ไขรัฐธรรมนูญให้\nเกิดความเป็นธรรมกับทุกฝ่าย",
      "demand": "1. เรียกร้องประชาธิปไตย\n2. แก้ไขรัฐธรรมนูญให้เกิดความเป็นธรรมกับทุกฝ่าย",
      "coordinates": {
        "lat": 13.819201,
        "lng": 100.5144455
      }
    },
    {
      "id": 71,
      "type": "a",
      "name": "#ประชาธิปไตยจะเบ่งบานบนลานดาว",
      "by": 1,
      "date": "28-02-2563",
      "place": "มหาวิทยาลัยแม่ฟ้าหลวง จ.เชียงราย",
      "reason": "เรียกร้องประชาธิปไตยและขับไล่รัฐบาลพลเอกประยุทธ์ จันทร์โอชา",
      "demand": "",
      "coordinates": {
        "lat": 20.0450865,
        "lng": 99.89484049999999
      }
    },
    {
      "id": 72,
      "type": "a",
      "name": "ติดป้ายผ้าเรียกร้องประชาธิปไตย",
      "by": 1,
      "date": "28-02-2563",
      "place": "โรงเรียนนวมินทราชินูทิศ หอวัง นนทบุรี จ.นนทบุรี",
      "reason": "เรียกร้องประชาธิปไตยที่แท้จริง",
      "demand": "",
      "coordinates": {
        "lat": 13.937380999999998,
        "lng": 100.5467455
      }
    },
    {
      "id": 73,
      "type": "a",
      "name": "#จันรีไม่รอกู้เดี๋ยวสู้เอง",
      "by": 2,
      "date": "28-02-2563",
      "place": "สนามสามเหลี่ยมทุ่งนาเชย จ.จันทบุรี",
      "reason": "แสดงจุดยืนต่อการใช้อำนาจที่ไม่ชอบธรรมของรัฐบาลพลเอกประยุทธ์ จันทร์โอชา",
      "demand": "",
      "coordinates": {
        "lat": 12.447868,
        "lng": 102.22003
      }
    },
    {
      "id": 74,
      "type": "a",
      "name": "#บักขามบ่มักสลิ่ม",
      "by": 2,
      "date": "28-02-2563",
      "place": "มหาวิทยาลัยราชภัฏเพชรบูรณ์ จ.เพชรบูรณ์",
      "reason": "เรียกร้องให้แก้รัฐธรรมนูญ และยุบสภาจัดการเลือกตั้งใหม่",
      "demand": "1. เรียกร้องให้รัฐบาลเคารพสิทธิเสรีภาพของประชาชน \n2. เรียกร้องให้มีการยุบสภา จัดการเลือกตั้งใหม่ \n3. ให้มีการแก้ไขรัฐธรรมนูญเรื่องที่มาของวุฒิสภา ให้มาจากประชาชน\n4. สร้างการมีส่วนร่วมโดยให้ ส.ส.ร. มีที่มาจากประชาชน",
      "coordinates": {
        "lat": 16.4517305,
        "lng": 101.150902
      }
    },
    {
      "id": 75,
      "type": "a",
      "name": "#ดอกกระเจียวจะเบ่งบานที่ลานน้ำพุ",
      "by": 1,
      "date": "28-02-2563",
      "place": "มหาวิทยาลัยราชภัฏชัยภูมิ จ.ชัยภูมิ",
      "reason": "ขับไล่รัฐบาลพลเอกประยุทธ์ จันทร์โอชา",
      "demand": "",
      "coordinates": {
        "lat": 15.806236,
        "lng": 102.03165375
      }
    },
    {
      "id": 76,
      "type": "a",
      "name": "#อยู่ข้างทำเนียบไม่เงียบได้ไง #ราชมงคลจะไม่ทนอีกต่อไป",
      "by": 1,
      "date": "28-02-2563",
      "place": "มหาวิทยาลัยเทคโนโลยี ราชมงคลพระนคร กรุงเทพมหานคร",
      "reason": "แสดงความไม่เห็นด้วยกับการบริหารงานของรัฐบาลพลเอกประยุทธ์ จันทร์โอชา",
      "demand": "",
      "coordinates": {
        "lat": 13.88352590017789,
        "lng": 100.57122570117076
      }
    },
    {
      "id": 77,
      "type": "a",
      "name": "BSRU FLASH MOB #อิสรภาพไม่ได้เป็นแค่ชื่อถนน",
      "by": 1,
      "date": "28-02-2563",
      "place": "มหาวิทยาลัยราชภัฏบ้านสมเด็จ เจ้าพระยา กรุงเทพมหานคร",
      "reason": "วิจารณ์การทำงานของรัฐบาลพลเอกประยุทธ์ จันทร์โอชา และศาลรัฐธรรมนูญ",
      "demand": "",
      "coordinates": {
        "lat": 13.766112281858641,
        "lng": 100.52470026764837
      }
    },
    {
      "id": 78,
      "type": "a",
      "name": "#ฟ้ามุ่ยไม่คุยกับเผด็จการ",
      "by": 1,
      "date": "28-02-2563",
      "place": "ลานสมเด็จพระนเรศวรมหาราช มหาวิทยาลัยพะเยา จ.พะเยา",
      "reason": "เรียกร้องให้พลเอกประยุทธ์ จันทร์โอชาและคณะรัฐมนตรีลาออก",
      "demand": "",
      "coordinates": {
        "lat": 19.030219,
        "lng": 99.911495
      }
    },
    {
      "id": 79,
      "type": "a",
      "name": "#ศอนอไม่พอใจเผด็จการ",
      "by": 1,
      "date": "28-02-2563",
      "place": "โรงเรียนศึกษานารี กรุงเทพมหานคร",
      "reason": "เพื่อร่วมแสดงออกทางการเมืองและวิจารณ์การทำงานของรัฐบาลพลเอกประยุทธ์ จันทร์โอชา",
      "demand": "",
      "coordinates": {
        "lat": 13.7349335,
        "lng": 100.495356
      }
    },
    {
      "id": 80,
      "type": "a",
      "name": "#คืนสู้เหย้าไม่เอาไอโอ(ชา)",
      "by": 1,
      "date": "29-02-2563",
      "place": "หอประชุมใหญ่ มหาวิทยาลัยเกษตรศาสตร์ บางเขน กรุงเทพมหานคร",
      "reason": "วิจารณ์การทำงานและขับไล่รัฐบาลพลเอกประยุทธ์ จันทร์โอชา",
      "demand": "",
      "coordinates": {
        "lat": 13.912131550617973,
        "lng": 100.60845079722263
      }
    },
    {
      "id": 81,
      "type": "a",
      "name": "#เสลาออกจากกะลา",
      "by": 1,
      "date": "01-03-2563",
      "place": "มหาวิทยาลัยนเรศวร จ.พิษณุโลก",
      "reason": "วิจารณ์การทำงานของรัฐบาลพลเอกประยุทธ์ จันทร์โอชาและศาลรัฐธรรมนูญตัดสินยุบพรรคอนาคตใหม่",
      "demand": "",
      "coordinates": {
        "lat": 16.85146382960903,
        "lng": 100.200839716055
      }
    },
    {
      "id": 82,
      "type": "a",
      "name": "#เด็กระยองไม่สลิ่มฮิ",
      "by": 1,
      "date": "01-03-2563",
      "place": "หอนาฬิกา เทศบันเทิงพลาซ่า จ.ระยอง",
      "reason": "แสดงจุดยืนต่อต้านอำนาจเผด็จการและการคุกคามประชาชนทุกรูปแบบ",
      "demand": "1. เพื่อแสดงจุดยืนต่อต้านความอยุติธรรมในสังคมไทย\n2. ต่อต้านอำนาจเผด็จการและการคุกคามประชาชนทุกรูปแบบ \n3. เพื่อเรียกร้องความเป็นธรรมในการบังคับใช้กฏหมายอย่างเท่าเทียม",
      "coordinates": {
        "lat": 6.431611,
        "lng": 101.822796
      }
    },
    {
      "id": 83,
      "type": "a",
      "name": "#ประชาชนไล่หัวหน้าio",
      "by": 2,
      "date": "01-03-2563",
      "place": "สี่แยกราชประสงค์ กรุงเทพมหานคร",
      "reason": "เรียกร้องให้นายกรัฐมนตรีลาออก",
      "demand": "",
      "coordinates": {
        "lat": 14.027266403708213,
        "lng": 100.61311715418746
      }
    },
    {
      "id": 84,
      "type": "a",
      "name": "#เด็กตรังไม่ชังชาติแต่ชังเผด็จการ",
      "by": 1,
      "date": "01-03-2563",
      "place": "สวนสาธารณะสวนทับเที่ยง จ.ตรัง",
      "reason": "เรียกร้องให้นายกรัฐมนตรีลาออก",
      "demand": "",
      "coordinates": {
        "lat": 7.635508752179676,
        "lng": 99.69000991868052
      }
    },
    {
      "id": 85,
      "type": "a",
      "name": "แฟลชม็อบ \"ใครฆ่าประชาธิปไตย\"",
      "by": 1,
      "date": "02-03-2563",
      "place": "มหาวิทยาลัยราชภัฏพระนครศรีอยุธยา จ.พระนครศรีอยุธยา",
      "reason": "วิจารณ์การทำงานและไล่รัฐบาลพลเอกประยุทธ์ จันทร์โอชา",
      "demand": "",
      "coordinates": {
        "lat": 14.348093,
        "lng": 100.563312
      }
    },
    {
      "id": 86,
      "type": "a",
      "name": "#สิงห์สี่แควอยากงัดกับสลิ่ม",
      "by": 1,
      "date": "02-03-2563",
      "place": "มหาวิทยาลัยราชภัฏนครสวรรค์ จ.นครสวรรค์",
      "reason": "เรียกร้องประชาธิปไตยกลับคืนมา",
      "demand": "",
      "coordinates": {
        "lat": 15.784583230861307,
        "lng": 100.14291889157505
      }
    },
    {
      "id": 87,
      "type": "a",
      "name": "#มอดังย่านบางนาโบกมือลาของหวานสามสี",
      "by": 1,
      "date": "02-03-2563",
      "place": "มหาวิทยาลัยหัวเฉียวเฉลิมพระเกียรติ จ.สมุทรปราการ",
      "reason": "-",
      "demand": "",
      "coordinates": {
        "lat": 13.75156,
        "lng": 100.515202
      }
    },
    {
      "id": 88,
      "type": "a",
      "name": "เต้น ไล่ (ไข) มัน! #มอเวียงบัวไม่กลัวสลิ่ม",
      "by": 1,
      "date": "02-03-2563",
      "place": "มหาวิทยาลัยราชภัฏเชียงใหม่ จ.เชียงใหม่",
      "reason": "-",
      "demand": "",
      "coordinates": {
        "lat": 18.807285,
        "lng": 98.9865605
      }
    },
    {
      "id": 89,
      "type": "a",
      "name": "#นิสิตหนึ่งเดียว_ณ_แดนใต้_อยากไฝว้เผด็จการ",
      "by": 1,
      "date": "04-03-2563",
      "place": "มหาวิทยาลัยทักษิณ จ.สงขลา",
      "reason": "-",
      "demand": "",
      "coordinates": {
        "lat": 6.576595052815675,
        "lng": 100.43632965780448
      }
    },
    {
      "id": 90,
      "type": "a",
      "name": "#ชาวประเวศเนรเทศเผด็จการ",
      "by": 1,
      "date": "04-03-2563",
      "place": "มหาวิทยาลัยรามคำแหง วิทยาเขตบางนา กรุงเทพมหานคร",
      "reason": "-",
      "demand": "",
      "coordinates": {
        "lat": 13.914553788235969,
        "lng": 100.64460065245656
      }
    },
    {
      "id": 91,
      "type": "a",
      "name": "#ลูกช้างไม่ทนขอชนเผด็จการ",
      "by": 2,
      "date": "06-03-2563",
      "place": "ศาลาธรรม มหาวิทยาลัยเชียงใหม่ จ.เชียงใหม่",
      "reason": "-",
      "demand": "1. นายกรัฐมนตรีลาออก\n2. ยุบสภา\n3. ร่างรัฐธรรมนูญฉบับใหม่\n4. การกระจายอำนาจสู่ท้องถิ่น\n5. เรียกร้องให้ทางมหาวิทยาลัยคุ้มครองเสรีภาพในการแสดงออกของนักศึกษา",
      "coordinates": {
        "lat": 13.98820917647433,
        "lng": 100.45130114400604
      }
    },
    {
      "id": 92,
      "type": "a",
      "name": "ปิดเทอมใหญ่ ซ้อมไล่เผด็จการ music fest",
      "by": 2,
      "date": "10-03-2563",
      "place": "มหาวิทยาลัยรามคำแหง กรุงเทพมหานคร",
      "reason": "เรียกร้องให้นายกรัฐมนตรีลาออก",
      "demand": "\n",
      "coordinates": {
        "lat": 13.769857109108106,
        "lng": 100.66467448426747
      }
    },
    {
      "id": 93,
      "type": "a",
      "name": "#ภูเขียวจะไม่ทน",
      "by": 2,
      "date": "13-03-2563",
      "place": "อนุสาวรีย์ประชาธิปไตยภูเขียว จ.ชัยภูมิ",
      "reason": "เรียกร้องให้รัฐบาลยุบสภา และร่างรัฐธรรมนูญใหม่",
      "demand": "1. รัฐบาลยุบสภา\n2. ร่างรัฐธรรมนูญใหม่",
      "coordinates": {
        "lat": 15.841853239899665,
        "lng": 102.05440358601611
      }
    },
    {
      "id": 94,
      "type": "a",
      "name": "เดินเท้าไปรัฐสภา ยื่นข้อเสนอในการ แก้ไขรัฐธรรมนูญ 2560",
      "by": 2,
      "date": "13-03-2563",
      "place": " รัฐสภา เกียกกาย กรุงเทพมหานคร",
      "reason": "แสดงจุดยืนและเรียกร้องให้มีการแก้ไขรัฐธรรมนูญ 2560",
      "demand": "",
      "coordinates": {
        "lat": 13.774212,
        "lng": 100.514399
      }
    },
    {
      "id": 95,
      "type": "a",
      "name": "การปราศรัยของนักศึกษารัฐศาสตร์ มหาวิทยาลัยอุบลราชธานี",
      "by": 1,
      "date": "13-03-2563",
      "place": "มหาวิทยาลัยอุบลราชธานี จ.อุบลราชธานี",
      "reason": "เรียกร้องให้ร่างรัฐธรรมนูญใหม่",
      "demand": "",
      "coordinates": {
        "lat": 15.401765560845437,
        "lng": 104.83807938584057
      }
    },
    {
      "id": 96,
      "type": "a",
      "name": "#ขอนแก่นพอกันที",
      "by": 1,
      "date": "14-03-2563",
      "place": "มหาวิทยาลัยขอนแก่น จ.ขอนแก่น",
      "reason": "-",
      "demand": "1. ร่างรัฐธรรมนูญใหม่โดยต้องมีที่มาจากประชาชน\n2. ยุบสภาและให้มีการเลือกตั้งใหม่ภายใต้กติกาที่เป็นธรรม \n3. ยุติบทบาทของวุฒิสภา รวมไปถึงการยุติบทบาทขององค์กรอิสระที่สรรหาแต่งตั้งโดยคสช.",
      "coordinates": {
        "lat": 16.68451701942817,
        "lng": 102.83906533334313
      }
    },
    {
      "id": 97,
      "type": "b",
      "name": "การจัดชุมนุมของเยาวชนปลดแอก (Free YOUTH) ร่วมกับสหภาพนักเรียนนิสิตนักศึกษาแห่งประเทศไทย (สนท.)",
      "by": 1,
      "date": "18-07-2563",
      "place": "อนุสาวรีย์ประชาธิปไตย กรุงเทพมหานคร",
      "reason": "แสดงความไม่เห็นด้วยกับการบริหารงานของรัฐบาล รวมไปถึงการประกาศใช้พระราชกำหนดการบริหารราชการในสถานการณ์ฉุกเฉิน พ.ศ. 2548 ในช่วงสถานการณ์แพร่ระบาดของโควิด-19 ที่ถูกใช้เป็นเครื่องมือทางกฎหมายในการคุกคามประชาชนที่ออกมาแสดงออกทางการเมือง ",
      "demand": "1. ยุบสภา\n2. หยุดคุกคามประชาชน \n3. ร่างรัฐธรรมนูญใหม่ ",
      "coordinates": {
        "lat": 14.049184186647604,
        "lng": 100.5912218975335
      }
    },
    {
      "id": 98,
      "type": "b",
      "name": "การจัดชุมนุม #ระยองไม่ทนคนระยำ โดยกลุ่มเยาวชนตะวันออกเพื่อประชาธิปไตย",
      "by": 1,
      "date": "18-07-2563",
      "place": "ลานหอนาฬิกา จังหวัดระยอง จ.ระยอง",
      "reason": "เรียกร้องให้รัฐบาลแก้ไขรัฐธรรมนูญ ยุบสภา และหยุดคุกคามประชาชน",
      "demand": "1. แก้ไขรัฐธรรมนูญ\n2. ยุบสภา\n3. หยุดคุกคามประชาชน ",
      "coordinates": {
        "lat": 12.683474,
        "lng": 101.240217
      }
    },
    {
      "id": 99,
      "type": "b",
      "name": "การจัดชุมนุม \"คนเชียงใหม่จะไม่ทน too\"",
      "by": 1,
      "date": "19-07-2563",
      "place": "ประตูท่าแพ จังหวัดเชียงใหม่",
      "reason": "สนับสนุนกลุ่มเยาวชนปลดแอก",
      "demand": "1. ขอให้พลเอกประยุทธ์ลาออกจากตำแหน่ง ผอ. ศบค.\n2. ยุบสภา + เลือกตั้งใหม่\n3. อย่าขัดขวางการร่างรัฐธรรมนูญใหม่ โดยให้ประชาชนมีส่วนร่วม",
      "coordinates": {
        "lat": 18.787823,
        "lng": 98.993538
      }
    },
    {
      "id": 100,
      "type": "b",
      "name": "การจัดชุมนุมของกลุ่ม \"วิ่งไล่ลุง อุบลราชธานี\"",
      "by": 2,
      "date": "19-07-2563",
      "place": "ศาลหลักเมือง จังหวัดอุบลราชธานี",
      "reason": "สนับสนุนกลุ่มเยาวชนปลดแอก",
      "demand": "",
      "coordinates": {
        "lat": 14.974851,
        "lng": 102.105952
      }
    },
    {
      "id": 101,
      "type": "b",
      "name": "ตัวแทน New life Network-แนวร่วมนวชีวิน-NN อดข้าวประท้วง",
      "by": 2,
      "date": "20-07-2563",
      "place": "หน้าทำเนียบรัฐบาล กรุงเทพมหานคร",
      "reason": "ขับไล่รัฐบาล",
      "demand": "",
      "coordinates": {
        "lat": 13.844501236539443,
        "lng": 100.5435018630764
      }
    },
    {
      "id": 102,
      "type": "b",
      "name": "อานนท์ นำภา และ เพนกวิน-พริษฐ์ ชิวารักษ์ จัดกิจกรรมแสดงความไม่พอใจผู้พันเจี๊ยบ อดีตรองโฆษก ทบ.",
      "by": 2,
      "date": "20-07-2563",
      "place": "หน้ากองบัญชาการกองทัพบก (บก.ทบ.) กรุงเทพมหานคร",
      "reason": "แสดงความไม่พอใจผู้พันเจี๊ยบ อดีตรองโฆษก ทบ. โพสต์การชุมนุมของเยาวชนปลดแอกเป็นม็อบมุ้งมิ้ง ตีกันเอง",
      "demand": "",
      "coordinates": {
        "lat": 13.939368927013513,
        "lng": 100.55536808925655
      }
    },
    {
      "id": 103,
      "type": "b",
      "name": "กิจกรรม “ชมสวนใหม่ยาม 2 ทุ่ม” ของ “กลุ่ม มศว คนรุ่นเปลี่ยน”",
      "by": 1,
      "date": "21-07-2563",
      "place": "อนุสาวรีย์ประชาธิปไตย กรุงเทพมหานคร",
      "reason": "ตะโกนชมสวนต้นไม้ที่ถูกจัดวางบริเวณอนุสาวรีย์ประชาธิปไตย ",
      "demand": "",
      "coordinates": {
        "lat": 13.880435898839478,
        "lng": 100.57223825750057
      }
    },
    {
      "id": 104,
      "type": "b",
      "name": "นักศึกษา ม.วลัยลักษณ์ ประกาศหนุน 3 ข้อเรียกร้องเยาวชนปลดแอก",
      "by": 1,
      "date": "21-07-2563",
      "place": "ศูนย์อาหารช่อประดู่ มหาวิทยาลัยวลัยลักษณ์ จ.นครศรีธรรมราช",
      "reason": "เพื่อให้กำลังใจผู้ชุมนุมทั่วประเทศและสนับสนุน 3 ข้อเรียกร้องของกลุ่มเยาวชนปลดแอก",
      "demand": "1. ยุบสภา\n2. หยุดคุกคามประชาชน \n3.ร่างรัฐธรรมนูญฉบับใหม่",
      "coordinates": {
        "lat": 8.706868617952832,
        "lng": 99.97698638386426
      }
    },
    {
      "id": 105,
      "type": "b",
      "name": "กิจกรรม “อิสานสิบ่ทน” ของกลุ่มแนวร่วม นิสิต มมส เพื่อประชาธิปไตย",
      "by": 1,
      "date": "22-07-2563",
      "place": "ลานแปดเหลี่ยม มหาวิทยาลัยมหาสารคาม จ.มหาสารคาม",
      "reason": "ขับไล่รัฐบาล และเรียกร้องร่างรัฐธรรมนูญใหม่",
      "demand": "1. ยุบสภา\n2. สว. 250 คน ลาออก\n3. เลือกตั้งใหม่ ภายใต้รัฐธรรมนูญ 2540\n4. ยกเลิกรัฐธรรมนูญ 2560 และร่างรัฐธรรมนูญใหม่ของประชาชน",
      "coordinates": {
        "lat": 16.441872996735867,
        "lng": 103.31547382234928
      }
    },
    {
      "id": 106,
      "type": "b",
      "name": "กิจกรรม \"คนแพร่เล่าขวัญเผด็จการ\" โดยแกนนำและเครือข่ายรักประชาธิปไตยแพร่",
      "by": 2,
      "date": "22-07-2563",
      "place": "สวนสุขภาพเฉลิมพระเกียรติ ร.9 จ.แพร่",
      "reason": "ขับไล่รัฐบาล",
      "demand": "",
      "coordinates": {
        "lat": 18.144623,
        "lng": 100.139771
      }
    },
    {
      "id": 107,
      "type": "b",
      "name": "กิจกรรม \"มาเก็บขยะ\"",
      "by": 2,
      "date": "22-07-2563",
      "place": "แหลมแท่น จ.ชลบุรี",
      "reason": "ขับไล่รัฐบาล",
      "demand": "",
      "coordinates": {
        "lat": 13.30217,
        "lng": 100.89735
      }
    },
    {
      "id": 108,
      "type": "b",
      "name": "กิจกรรม \"สงขลาไม่ทนtoo\"",
      "by": 2,
      "date": "22-07-2563",
      "place": "รูปปั้นนางเงือก ริมชายหาดสมิหลา จ.สงขลา",
      "reason": "ขับไล่รัฐบาล",
      "demand": "",
      "coordinates": {
        "lat": 6.63510731996016,
        "lng": 100.46466910220451
      }
    },
    {
      "id": 109,
      "type": "b",
      "name": "กิจกรรม \"อีสานบ่ย่านเด้อ\" ของนักศึกษา ม.ขอนแก่น และกลุ่มขอนแก่นพอกันที",
      "by": 2,
      "date": "23-07-2563",
      "place": "สวนรัชดานุสรณ์ จ.ขอนแก่น",
      "reason": "ขับไล่รัฐบาล",
      "demand": "",
      "coordinates": {
        "lat": 16.43972,
        "lng": 102.835169
      }
    },
    {
      "id": 110,
      "type": "b",
      "name": "กิจกรรม “หมุดหมายประชาธิปไตย ร่วมเเฟลชม็อบไล่เผด็จการไปด้วยกัน” โดยสโมสรนักศึกษาคณะรัฐศาสตร์ มหาวิทยาลัยสงขลานครินทร์",
      "by": 1,
      "date": "23-07-2563",
      "place": "มหาวิทยาลัยสงขลานครินทร์ วิทยาเขตปัตตานี จ.ปัตตานี",
      "reason": "เพื่อเรียกร้อง 3 ข้อเรียกร้องของเยาวชนปลดแอก และเรื่องยกเลิกอุตสาหกรรมจะนะ ",
      "demand": "1. หยุดคุกคามประชาชน \n2. ยุบสภา \n3. เปิดทางให้มีการร่างรัฐธรรมนูญฉบับใหม่\n4. ยกเลิกอุตสาหกรรมจะนะ ",
      "coordinates": {
        "lat": 7.9215813277543985,
        "lng": 98.38684357183655
      }
    },
    {
      "id": 111,
      "type": "b",
      "name": "กลุ่มนวชีวิน ร่วมกับ ภาคีนักศึกษาศาลายา จัดกิจกรรมอ่านแถลงการณ์ เผารูป พล.อ.ประยุทธ์ และ พล.อ.ประวิตร",
      "by": 2,
      "date": "24-07-2563",
      "place": "หน้าทำเนียบรัฐบาล กรุงเทพมหานคร",
      "reason": "ขับไล่รัฐบาล",
      "demand": "",
      "coordinates": {
        "lat": 13.783724898451513,
        "lng": 100.56667433521143
      }
    },
    {
      "id": 112,
      "type": "b",
      "name": "นักเรียนเตรียมอุดมฯ จัดกิจกรรมไล่รัฐบาลเผด็จการในโรงเรียน",
      "by": 1,
      "date": "24-07-2563",
      "place": "โรงเรียนเตรียมอุดมศึกษา กรุงเทพมหานคร",
      "reason": "ขับไล่รัฐบาล",
      "demand": "",
      "coordinates": {
        "lat": 13.853367546927032,
        "lng": 100.58995108316428
      }
    },
    {
      "id": 113,
      "type": "b",
      "name": "ชุมนุม “ประชาชนเป็นใหญ่ในแผ่นดิน” โดยกลุ่ม “มอกะเสด” (KU Daily)",
      "by": 1,
      "date": "24-07-2563",
      "place": "ม.เกษตรฯ กรุงเทพมหานคร",
      "reason": "ขับไล่รัฐบาล",
      "demand": "",
      "coordinates": {
        "lat": 13.833093726800898,
        "lng": 100.57135589047586
      }
    },
    {
      "id": 114,
      "type": "b",
      "name": "กิจกรรม \"ลูกพิกุลไม่สนับสนุนเผด็จการ\" โดยนักเรียนสตรีวิทยา 2",
      "by": 1,
      "date": "24-07-2563",
      "place": "หน้าห้องสมุด โรงเรียนสตรีวิทยา 2 กรุงเทพมหานคร",
      "reason": "ตะโกนร่วมกันเรียกร้องให้ยุบสภา 3 ครั้ง และตะโกนลูกพิกุลไม่สลิ่ม 3 ครั้ง",
      "demand": "",
      "coordinates": {
        "lat": 13.830821499999999,
        "lng": 100.6158145
      }
    },
    {
      "id": 115,
      "type": "b",
      "name": "กิจกรรม “อุดรธานีสิบ่ทน” โดยกลุ่มเสรีประชาธิปไตยนิสิตนักศึกษาอุดรธานี, กลุ่มดอกจานบานที่อุดรธานี, กลุ่มเยาวชนอุดรปลดแอก",
      "by": 1,
      "date": "24-07-2563",
      "place": "ทุ่งศรีเมือง ลานน้ำพุ จ.อุดรธานี",
      "reason": "ขับไล่รัฐบาล",
      "demand": "",
      "coordinates": {
        "lat": 15.22975,
        "lng": 104.858063
      }
    },
    {
      "id": 116,
      "type": "b",
      "name": "การจัดชุมนุมโดย พรรควิฬาร์ (แมวดำ) ม.เชียงใหม่ และชาวลำพูน",
      "by": 2,
      "date": "24-07-2563",
      "place": "อนุสาวรีย์พระนางจามเทวี จ.ลำพูน",
      "reason": "ขับไล่รัฐบาล",
      "demand": "",
      "coordinates": {
        "lat": 18.574546,
        "lng": 99.004198
      }
    },
    {
      "id": 117,
      "type": "b",
      "name": "กิจกรรม “ใส่ดำไว้ทุกข์ประเทศไทย เดินไล่โจรปล้นชาติ” โดยกลุ่มเลือกข้างประชาธิปไตย",
      "by": 2,
      "date": "25-07-2563",
      "place": " อนุสาวรีย์ประชาธิปไตย กรุงเทพมหานคร",
      "reason": "ขับไล่รัฐบาล",
      "demand": "",
      "coordinates": {
        "lat": 13.823092531878064,
        "lng": 100.56435389908377
      }
    },
    {
      "id": 118,
      "type": "b",
      "name": "กิจกรรม แต่งชุดดำชุมนุม ของนักเรียน นักศึกษากลุ่ม “คนคอนไม่ทน”",
      "by": 1,
      "date": "25-07-2563",
      "place": "สนามหน้าเมือง จ.นครศรีธรรมราช",
      "reason": "ขับไล่รัฐบาล",
      "demand": "",
      "coordinates": {
        "lat": 8.512201850800693,
        "lng": 100.01776037755486
      }
    },
    {
      "id": 119,
      "type": "b",
      "name": "การจัดชุมนุม \"กาญจน์ปลดแอก\" ของกลุ่มเยาวชนกาญจน์ปลดแอก",
      "by": 1,
      "date": "25-07-2563",
      "place": " อนุสาวรีย์พระนั่งเกล้าเจ้าอยู่หัว จ.กาญจนบุรี",
      "reason": "ประกาศข้อเรียกร้องถึงรัฐบาล 3 ข้อ",
      "demand": "1. ขอให้รัฐบาลยุบสภา \n2. ให้รัฐบาลหยุดคุกคามคนเห็นต่าง \n3. เรียกร้องให้ร่างรัฐธรรมนูญขึ้นมาใหม่",
      "coordinates": {
        "lat": 13.966781,
        "lng": 99.731522
      }
    },
    {
      "id": 120,
      "type": "b",
      "name": "กิจกรรม \"ม็อบไม่มุ้งมิ้งแต่ตุ้งติ้งค่ะคุณรัฐบาล\" โดยกลุ่มเสรีเทยพลัส",
      "by": 1,
      "date": "25-07-2563",
      "place": "อนุสาวรีย์ประชาธิปไตย กรุงเทพมหานคร",
      "reason": "ประกาศจุดยืนและข้อเรียกร้อง 3 ประการ สืบเนื่องจากม็อบเยาวชนปลดแอก และเรียกร้องความเท่าเทียมทางเพศ",
      "demand": "1. ยุบสภา\n2. หยุดคุกคามประชาชน \n3. ร่างรัฐธรรมนูญใหม่ \n4. เรียกร้องให้รัฐบาลและผู้มีส่วนเกี่ยวข้องสนับสนุนการแก้ไขประมวลกฎหมายแพ่งและพาณิชย์ เพื่อให้บุคคลทุกเพศสามารถสมรสกันได้อย่างถูกกฎหมาย หรือการสมรสเท่าเทียมเกิดขึ้นในประเทศไทย",
      "coordinates": {
        "lat": 14.047016052793252,
        "lng": 100.60250615122918
      }
    },
    {
      "id": 121,
      "type": "b",
      "name": "กิจกรรม \"จันรีไม่ทนคนจัญไร\"",
      "by": 2,
      "date": "26-07-2563",
      "place": "สนามกีฬาสามเหลี่ยม จ.จันทบุรี",
      "reason": "ขับไล่รัฐบาล",
      "demand": "",
      "coordinates": {
        "lat": 12.699579032008073,
        "lng": 102.28111332263269
      }
    },
    {
      "id": 122,
      "type": "b",
      "name": "กิจกรรมโดยกลุ่ม \"ภูเก็ตปลดแอก\"",
      "by": 2,
      "date": "26-07-2563",
      "place": "วงเวียนหอย สะพานหิน จ.ภูเก็ต",
      "reason": "ขับไล่รัฐบาล",
      "demand": "",
      "coordinates": {
        "lat": 7.862654,
        "lng": 98.400372
      }
    },
    {
      "id": 123,
      "type": "b",
      "name": "กิจกรรม \"หนองคายสิบ่ทน\"",
      "by": 2,
      "date": "26-07-2563",
      "place": "ลานน้ำพุพญานาค เทศบาลเมืองหนองคาย จ.หนองคาย",
      "reason": "ขับไล่รัฐบาล",
      "demand": "",
      "coordinates": {
        "lat": 17.8821975,
        "lng": 102.7457125
      }
    },
    {
      "id": 124,
      "type": "b",
      "name": "กิจกรรม #วิ่งกันนะแฮมทาโร่ (โดยกลุ่มแนวร่วมนวชีวิน)",
      "by": 1,
      "date": "26-07-2563",
      "place": "อนุสาวรีย์ประชาธิปไตย กรุงเทพมหานคร",
      "reason": "วิ่งมีการตะโกนคำว่า “ยุบสภาฯ” และร้องแฮมทาโร่สลับกันไป มีการชูป้ายแสดงความคิดเห็นที่เขียนข้อความต่าง ๆ ระหว่างการวิ่ง",
      "demand": "",
      "coordinates": {
        "lat": 13.832839791228626,
        "lng": 100.57367490813391
      }
    },
    {
      "id": 125,
      "type": "b",
      "name": "กิจกรรม #กรูหิวกรูไม่ทน โดยกลุ่มประชาชนปลดกระดุม นำโดย สมบัติ บุญงามอนงค์",
      "by": 2,
      "date": "26-07-2563",
      "place": "ร้านแมคฯ ตรงข้ามอนุสาวรีย์ประชาธิปไตย กรุงเทพมหานคร",
      "reason": "จัดกิจกรรมรับประทานอาหารภายในร้าน McDonald’s ภายใต้คำขวัญ #กรูหิวกรูไม่ทน",
      "demand": "",
      "coordinates": {
        "lat": 13.832753593313306,
        "lng": 100.53448575431618
      }
    },
    {
      "id": 126,
      "type": "b",
      "name": "กิจกรรม “ส้มโอ โอโห้! โอชา” โดยกลุ่มขบวนการประชาธิปไตยใหม่",
      "by": 2,
      "date": "27-07-2563",
      "place": "อนุสาวรีย์ประชาธิปไตย กรุงเทพมหานคร",
      "reason": "ขับไล่รัฐบาล",
      "demand": "",
      "coordinates": {
        "lat": 13.84724092045665,
        "lng": 100.58162688635754
      }
    },
    {
      "id": 127,
      "type": "b",
      "name": "กิจกรรม “แปดริ้วจะไม่ทนกับประชาธิปไตยจอมปลอม”",
      "by": 2,
      "date": "27-07-2563",
      "place": "ลานกิจกรรม หน้าโรงพยาบาลพุทธโสธร จ.ฉะเชิงเทรา",
      "reason": "ประกาศข้อเรียกร้อง 3 ข้อ",
      "demand": "1. ขอให้รัฐบาลยุบสภา \n2. ให้รัฐบาลหยุดคุกคามคนเห็นต่าง \n3. เรียกร้องให้ร่างรัฐธรรมนูญขึ้นมาใหม่ ",
      "coordinates": {
        "lat": 13.762143,
        "lng": 100.564568
      }
    },
    {
      "id": 128,
      "type": "b",
      "name": "การจัดชุมนุม โดยนักศึกษา ม.บูรพาสระแก้ว",
      "by": 1,
      "date": "27-07-2563",
      "place": "หน้าองค์พระสยามเทวาธิราช อ.อรัญประเทศ จ.สระแก้ว",
      "reason": "ขับไล่รัฐบาล",
      "demand": "",
      "coordinates": {
        "lat": 13.779848709811995,
        "lng": 102.14117070134918
      }
    },
    {
      "id": 129,
      "type": "b",
      "name": "กิจกรรม \"เชียงใหม่จะไม่ทน too\" ครั้งที่ 2 โดยกลุ่มเยาวชนปลดแอก นักศึกษา ม.เชียงใหม่ ตัวแทนนักศึกษาจากสถาบันในภาคเหนือ",
      "by": 1,
      "date": "29-07-2563",
      "place": "ประตูท่าแพ จังหวัดเชียงใหม่",
      "reason": "ขับไล่รัฐบาล",
      "demand": "",
      "coordinates": {
        "lat": 18.884476868789157,
        "lng": 99.08517796985879
      }
    },
    {
      "id": 130,
      "type": "b",
      "name": "กิจกรรม “วิ่งแฮมทาโร่”",
      "by": 1,
      "date": "29-07-2563",
      "place": "ลานข้างบ่อบำบัดน้ำเสีย เทศบาลนครนครสวรรค์ จ.นครสวรรค์",
      "reason": "ขับไล่รัฐบาล",
      "demand": "",
      "coordinates": {
        "lat": 15.807266702672626,
        "lng": 100.18408226067406
      }
    },
    {
      "id": 131,
      "type": "b",
      "name": "กิจกรรม #เด็กนนท์ พร้อมชนเผด็จการ #แฮมเตอร์นนท์ ไล่รัฐบาล #ลูกทุเรียนนนท์ ต่อต้านเผด็จการ",
      "by": 1,
      "date": "29-07-2563",
      "place": "ลานกิจกรรม ริมเขื่อนท่าน้ำนนทบุรี จ.นนทบุรี",
      "reason": "ขับไล่รัฐบาล",
      "demand": "",
      "coordinates": {
        "lat": 13.960378588242493,
        "lng": 100.6054128126627
      }
    },
    {
      "id": 132,
      "type": "b",
      "name": "กิจกรรม #เมืองเลยสิบ่ทนก๋อ",
      "by": 2,
      "date": "29-07-2563",
      "place": "สวนสาธารณะกุดป่อง จ.เลย",
      "reason": "ขับไล่รัฐบาล",
      "demand": "",
      "coordinates": {
        "lat": 17.486184,
        "lng": 101.729241
      }
    },
    {
      "id": 133,
      "type": "b",
      "name": "กิจกรรม “ลูกหลานนักศึกษาล้างจาน: ล้างอยุติธรรม: ล้างบางรัฐบาลเผด็จการ” โดยกลุ่ม 24 มิถุนา ประชาธิปไตย",
      "by": 2,
      "date": "30-07-2563",
      "place": "หน้าทำเนียบรัฐบาล กรุงเทพมหานคร",
      "reason": "แสดงสัญลักษณ์ขับไล่รัฐบาล และยื่นข้อเรียกร้องให้รัฐบาลรื้อฟื้นคดีของวรยุทธ์หรือ \"บอส\" อยู่วิทยา และขอให้รัฐบาลตรวจสอบการปฏิบัติหน้าที่ของอัยการ เจ้าหน้าที่ตำรวจ และพนักงานสอบสวนที่เกี่ยวข้องว่าบกพร่องในหน้าที่หรือปฏิบัติหน้าที่โดยมิชอบหรือไม่",
      "demand": "1. ขอให้รัฐบาลรื้อฟื้นคดีของวรยุทธ์หรือ \"บอส\" อยู่วิทยา \n2. ขอให้รัฐบาลตรวจสอบการปฏิบัติหน้าที่ของอัยการ เจ้าหน้าที่ตำรวจ และพนักงานสอบสวนที่เกี่ยวข้องว่าบกพร่องในหน้าที่หรือปฏิบัติหน้าที่โดยมิชอบหรือไม่",
      "coordinates": {
        "lat": 13.812723244636942,
        "lng": 100.5606668543704
      }
    },
    {
      "id": 134,
      "type": "b",
      "name": "กิจกรรม “อย่าปล่อยให้เผด็จการเป็นเรื่องปกติ” โดยนักศึกษา 3 สถาบันพระจอมเกล้าฯ",
      "by": 1,
      "date": "30-07-2563",
      "place": "มหาวิทยาลัยเทคโนโลยีพระจอมเกล้าพระนครเหนือ กรุงเทพมหานคร",
      "reason": "ขับไล่รัฐบาล",
      "demand": "",
      "coordinates": {
        "lat": 13.93734868224074,
        "lng": 100.56427511254269
      }
    },
    {
      "id": 135,
      "type": "b",
      "name": "กิจกรรม “Hamtaro Oak Oak Run” โดยกลุ่มแฮมทาโร่ตรวจไฟ พร้อมด้วยกลุ่มนักเรียนนักศึกษา",
      "by": 2,
      "date": "30-07-2563",
      "place": "ลานพระบรมราชานุสาวรีย์สมเด็จพระเจ้าตากสินฯ วงเวียนใหญ่ กรุงเทพมหานคร",
      "reason": "รวมตัวกันเพื่อแสดงออกตามเจตนารมณ์ทางการเมืองตามแนวทางประชาธิปไตย",
      "demand": "1. ยุบสภา\n2. แก้ไขรัฐธรรมนูญ\n3. หยุดคุกคามประชาชน",
      "coordinates": {
        "lat": 14.04239548200725,
        "lng": 100.54626950569813
      }
    },
    {
      "id": 136,
      "type": "b",
      "name": "กิจกรรมไล่รัฐบาล โดยนักเรียนจากโรงเรียนสาธิต ม.ศิลปากร โรงเรียนศรีวิชัยวิทยา นักศึกษาและศิษย์เก่า",
      "by": 1,
      "date": "30-07-2563",
      "place": "มหาวิทยาลัยศิลปากร สนามจันทร์ จ.นครปฐม",
      "reason": "ขับไล่รัฐบาล",
      "demand": "",
      "coordinates": {
        "lat": 13.988138958594828,
        "lng": 100.11091815603694
      }
    },
    {
      "id": 137,
      "type": "b",
      "name": "กิจกรรม #ลูกพ่อแลไม่แคร์เผด็จการ #ชัยภูมิจะไม่ทน",
      "by": 2,
      "date": "30-07-2563",
      "place": "อนุสาวรีย์เจ้าพ่อพญาแล จ.ชัยภูมิ",
      "reason": "ขับไล่รัฐบาล",
      "demand": "",
      "coordinates": {
        "lat": 16.077369159265448,
        "lng": 102.03192951499697
      }
    },
    {
      "id": 138,
      "type": "b",
      "name": "เวรี่แฟลชม็อบ “แจวเรือ! ตามหาประชาธิปไตย” โดยกลุ่ม #เกียมอุดมไม่ก้มหัวให้เผด็จการ",
      "by": 1,
      "date": "31-07-2563",
      "place": "ลานอเนกประสงค์ โรงเรียนเตรียมอุดมศึกษา กรุงเทพมหานคร",
      "reason": "ขับไล่รัฐบาล",
      "demand": "",
      "coordinates": {
        "lat": 13.697777,
        "lng": 100.538034
      }
    },
    {
      "id": 139,
      "type": "b",
      "name": "กิจกรรม “เขียนจดหมาย บันทึกเก็บไว้ ก่อนเปิดสู่สาธารณะ 10 ปี” โดยเครือข่ายนักเรียน นิสิต นักศึกษาเคียงข้างประชาชนเพื่อประชาธิปไตย (คนป.) และ สนท.",
      "by": 1,
      "date": "31-07-2563",
      "place": "ไปรษณีย์กลาง บางรัก กรุงเทพมหานคร",
      "reason": "เขียนจดหมายส่งหาตัวเองในอีก 10 ปีข้างหน้า เพื่อเป็นหมุดหมายให้ตนเองว่าใฝ่อะไรในอนาคต ประเทศไทยที่ดีกว่าเดิมหน้าตาเป็นอย่างไร และจะได้เห็นว่า 10 ปีที่ผ่านมา แต่ละคนเผชิญและสูญเสียอะไรไปบ้าง",
      "demand": "",
      "coordinates": {
        "lat": 13.72736,
        "lng": 100.515824
      }
    },
    {
      "id": 140,
      "type": "b",
      "name": "กิจกรรมแฟลชม็อบ “ยืนชูกระดาษเปล่า” โดยกลุ่ม มศว คนรุ่นใหม่",
      "by": 1,
      "date": "31-07-2563",
      "place": "สกายวอล์ก สี่แยกปทุมวัน กรุงเทพมหานคร",
      "reason": "ขับไล่รัฐบาล",
      "demand": "",
      "coordinates": {
        "lat": 13.928123029342123,
        "lng": 100.51710131774122
      }
    },
    {
      "id": 141,
      "type": "b",
      "name": "กลุ่มเยาวชนจัดกิจกรรมแฟลชม็อบ Hamtaro Oak Oak Run “ของอร่อยที่สุดคือภาษีประชาชน”",
      "by": 1,
      "date": "31-07-2563",
      "place": "ใต้สะพานตากสิน กรุงเทพมหานคร",
      "reason": "การวิ่งแฮมทาโร่เป็นวงกลม เพื่อต่อต้านเผด็จการ ยุบสภา ร่างรัฐธรรมนูญโดยประชาชน ยกเลิก พ.ร.ก.ฉุกเฉิน",
      "demand": "",
      "coordinates": {
        "lat": 13.796270049259386,
        "lng": 100.53534083693414
      }
    },
    {
      "id": 142,
      "type": "b",
      "name": "กิจกรรมตบยุงไล่ลุงตู่ โดยนิสิต ม.นเรศวร",
      "by": 1,
      "date": "31-07-2563",
      "place": "สนามหน้าคณะสังคมศาสตร์ มหาวิทยาลัยนเรศวร จ.พิษณุโลก",
      "reason": "ขับไล่รัฐบาล",
      "demand": "",
      "coordinates": {
        "lat": 16.945260038162267,
        "lng": 100.25634892577885
      }
    },
    {
      "id": 143,
      "type": "b",
      "name": "กิจกรรม “คนอุบลรวมพลไม่ทนเผด็จการ” โดยกลุ่มวิ่งไล่ลุงอุบลฯ และกลุ่มคนอุบลรวมพลทุกชนชั้น",
      "by": 2,
      "date": "01-08-2563",
      "place": "ศาลหลักเมือง จังหวัดอุบลราชธานี",
      "reason": "ประกาศข้อเรียกร้อง 4 ข้อ ",
      "demand": "1. เรียกร้องร่างรัฐธรรมนูญใหม่ \n2. ประยุทธ์ลาออกจากนายกฯ \n3. หยุดคุกคามประชาชน \n4. ยุบสภา",
      "coordinates": {
        "lat": 15.097932805391377,
        "lng": 102.10797164629608
      }
    },
    {
      "id": 144,
      "type": "b",
      "name": "กิจกรรม #ราชบุรีขอตีกับเผด็จการ โดยกลุ่มเยาวชนราชบุรีปลดแอก",
      "by": 1,
      "date": "01-08-2563",
      "place": "ริมแม่น้ำแม่กลอง หน้าธนาคารออมสินสาขาราชบุรี จ.ราชบุรี",
      "reason": "ประกาศข้อเรียกร้อง 3 ข้อ",
      "demand": "1. นายกฯ ต้องประกาศยุบสภา \n2. หยุดคุกคามประชาชน \n3. ร่างรัฐธรรมนูญใหม่",
      "coordinates": {
        "lat": 13.540544,
        "lng": 99.82091
      }
    },
    {
      "id": 145,
      "type": "b",
      "name": "คณะประชาชนเพื่ออิสรภาพ (คปอ.) และกลุ่มภาคีนักศึกษาศาลายา จัดกิจกรรม “ปั่นปลดแอก”",
      "by": 2,
      "date": "02-08-2563",
      "place": " หน้าทำเนียบรัฐบาล กรุงเทพมหานคร",
      "reason": "อ่านแถลงเรียกร้องให้ พลเอกประยุทธ์ จันทร์โอชา นายกรัฐมนตรี และรัฐมนตรีว่าการกระทรวงกลาโหม ลาออกจากตำแหน่ง และรำลึกการอุ้มหาย วันเฉลิม สัตย์ศักดิ์สิทธิ์ ผู้ลี้ภัยทางการเมืองชาวไทย",
      "demand": "พลเอกประยุทธ์ จันทร์โอชา นายกรัฐมนตรี และรัฐมนตรีว่าการกระทรวงกลาโหม ลาออกจากตำแหน่ง",
      "coordinates": {
        "lat": 13.755817338343888,
        "lng": 100.61167692508755
      }
    },
    {
      "id": 146,
      "type": "b",
      "name": "กิจกรรม #ระยองไม่ทนคนระยำ ของกลุ่มเยาวชนตะวันออกเพื่อประชาธิปไตย โดยไมค์ ภาณุพงศ์ จาดนอก, เพนกวิน พริษฐ์ ชิวารักษ์ พร้อมชาวระยอง ชุมนุมร่วมกัน",
      "by": 1,
      "date": "02-08-2563",
      "place": "หอนาฬิกา เทศบันเทิงพลาซ่า จ.ระยอง",
      "reason": "ขับไล่รัฐบาล",
      "demand": "1. ผู้มีอำนาจหยุดคุกคามประชาชน \n2. ร่างรัฐธรรมนูญใหม่ \n3. ให้รัฐบาลยุบสภา",
      "coordinates": {
        "lat": 6.727543957513066,
        "lng": 101.91837517150152
      }
    },
    {
      "id": 147,
      "type": "b",
      "name": "สมบัติ บุญงามอนงค์ จัดกิจกรรม ซุ่มกินแมค",
      "by": 2,
      "date": "02-08-2563",
      "place": "ประตูท่าแพ จ.เชียงใหม่",
      "reason": "จัดเลี้ยงแก่คนที่ไปกินอาหารที่ McDonald’s สาขาท่าแพ จ.เชียงใหม่  เพื่อฉลองชัยชนะจากการต่อสู้คดี ม.116 ที่ยาวนานถึง 6 ปี",
      "demand": "",
      "coordinates": {
        "lat": 19.039031411491806,
        "lng": 99.01696734915369
      }
    },
    {
      "id": 148,
      "type": "b",
      "name": "กลุ่ม \"มหานครเพื่อประชาธิปไตย\" ร่วมกับ \"กลุ่มมอกะเสด\" จัดการชุมนุมในชื่อ”เสกคาถา ผู้พิทักษ์ปกป้องประชาธิปไตย”",
      "by": 2,
      "date": "03-08-2563",
      "place": "อนุสาวรีย์ประชาธิปไตย กรุงเทพมหานคร",
      "reason": "อานนท์ นำภา ขึ้นปราศรัยในประเด็นการขยายพระราชอำนาจของสถาบันพระมหากษัตริย์และการปฏิรูปสถาบันฯ \"เป็นครั้งแรก\"",
      "demand": "การปฏิรูปสถาบันพระมหากษัตริย์ (ถูกพูดถึงเป็นครั้งแรก)",
      "coordinates": {
        "lat": 13.948173418574713,
        "lng": 100.54792020484497
      }
    },
    {
      "id": 149,
      "type": "b",
      "name": "กิจกรรม “มองสภาใหม่ฝันให้ไกล สร้างไม่เสร็จ” โดยสิรภพ พุ่มพึ่งพุทธ ตัวแทนกลุ่มมศว. คนรุ่นเปลี่ยน",
      "by": 1,
      "date": "06-08-2563",
      "place": "บริเวณหน้าอาคารรัฐสภา กรุงเทพมหานคร",
      "reason": "มาดูการก่อสร้างรัฐสภา ที่ใช้เวลาก่อสร้างอย่างยาวนาน ว่าจะเกิดความคุ้มค่ากับภาษีประชาชนหรือไม่ และจะเป็นการเสียค่าโง่ในการก่อสร้างอีกหรือไม่ เพราะไม่ทราบงบประมาณที่แท้จริงว่าใช้จ่ายไปเท่าไหร่แล้ว เนื่องจากที่ผ่านมามีการขอขยายระยะเวลาการก่อสร้างหลายครั้ง และติดขัดปัญหาการเวรคืนที่ดินมาตลอด",
      "demand": "",
      "coordinates": {
        "lat": 13.764365464014324,
        "lng": 100.5758535594329
      }
    },
    {
      "id": 150,
      "type": "b",
      "name": "แถลงข่าวเปิดตัว \"คณะประชาชนปลดแอก\" (Free people) (การรวมตัวกันของหลายกลุ่ม เช่น เยาวชนปลดแอก เสรีเทยพลัส)",
      "by": 2,
      "date": "07-08-2563",
      "place": "อนุสาวรีย์ประชาธิปไตย กรุงเทพมหานคร",
      "reason": "ยกระดับการเคลื่อนไหวต่อเนื่องจากการชุมนุมของเยาวชนปลดแอก เมื่อวันที่ 18 กรกฎาคม 2563 เพราะ รัฐบาลยังคงนิ่งเฉยไม่ดําเนินการตามข้อเรียกร้อง 3 ข้อ",
      "demand": "1. หยุดคุกคามประชาชน\n2. ร่างรัฐธรรมนูญใหม่\n3. ยุบสภา",
      "coordinates": {
        "lat": 13.807842176491269,
        "lng": 100.58367984050344
      }
    },
    {
      "id": 151,
      "type": "b",
      "name": "การชุมนุมเพื่อคัดค้านการจับกุมตัวทนายอานนท์ นำภาและไมค์ ภานุพงษ์ จาดนอก",
      "by": 2,
      "date": "07-08-2563",
      "place": "สน.บางเขน กรุงเทพมหานคร",
      "reason": "เพื่อให้กำลังใจและคัดค้านการจับกุมตัวของเจ้าหน้าที่ตำรวจ ",
      "demand": "1. หยุดคุกคามประชาชน\n2. ปล่อยเพื่อนเรา",
      "coordinates": {
        "lat": 13.815449748039766,
        "lng": 100.52044195850729
      }
    },
    {
      "id": 152,
      "type": "b",
      "name": "ม็อบเมาคลีล่าตู่",
      "by": 1,
      "date": "07-08-2563",
      "place": "ลานเพลินตา อาคารไทยบุรี มหาวิทยาลัยวลัยลักษณ์ จ.นครศรีธรรมราช",
      "reason": "ขับไล่รัฐบาล",
      "demand": "1. เรียกร้องให้รัฐบาลยุบสภา \n2. ให้เจ้าหน้าที่รัฐหยุดคุกคามประชาชนในรูปแบบต่าง ๆ\n3. ให้ร่างรัฐธรรมนูญฉบับใหม่",
      "coordinates": {
        "lat": 8.854881986452387,
        "lng": 99.92955170509957
      }
    },
    {
      "id": 153,
      "type": "b",
      "name": "กิจกรรมถือกระดาษเปล่าและชูสามนิ้วของนักเรียนนักศึกษา",
      "by": 1,
      "date": "07-08-2563",
      "place": "หน้าโรงเรียนหาดใหญ่วิทยาลัย จ.สงขลา",
      "reason": "แสดงจุดยืนต่อต้านเผด็จการ",
      "demand": "",
      "coordinates": {
        "lat": 6.747294892591445,
        "lng": 100.4185935120186
      }
    },
    {
      "id": 154,
      "type": "b",
      "name": "Flash Mob \"ถ้าไม่สู้ก็อยู่อย่างทาส\" ของ \"คณะประชาชนปลดแอก\"",
      "by": 2,
      "date": "08-08-2563",
      "place": "Sky Walk หน้า MBK Center กรุงเทพมหานคร",
      "reason": "ต่อต้านการใช้กฎหมายเป็นเครื่องมือของ (รัฐบาล) เผด็จการในการคุกคามประชาชน  และตอบโต้ท่าทีของรัฐบาลที่ยังคงเพิกเฉยต่อข้อเรียกร้อง และยังคงเดินหน้าคุกคามประชาชน รวมถึงเพื่อทวงคืนความยุติธรรมให้กับประชาชน หลังทนายอานนท์ นำภา และ ไมค์ ภานุพงศ์ จาดนอก ถูกตำรวจจับและตั้ง 8 ข้อหาในการชุมนุมของกลุ่มเยาวชนปลดแอกเมื่อวันที่ 18 ก.ค. 2563\n\n",
      "demand": "1. หยุดคุกคามประชาชน\n2. ปล่อยเพื่อนเรา",
      "coordinates": {
        "lat": 13.7454195,
        "lng": 100.5301515
      }
    },
    {
      "id": 155,
      "type": "b",
      "name": "การชุมนุมคัดค้านการจับกุมตัวอานนท์และภานุพงษ์",
      "by": 2,
      "date": "08-08-2563",
      "place": "ศาลอาญา รัชดา กรุงเทพมหานคร",
      "reason": "คัดค้านการจับกุมตัวอานนท์และภานุพงษ์รวมถึงมาให้กำลังใจทั้งสองคน",
      "demand": "1. หยุดคุกคามประชาชน\n2. ปล่อยเพื่อนเรา",
      "coordinates": {
        "lat": 13.816369,
        "lng": 100.574899
      }
    },
    {
      "id": 156,
      "type": "b",
      "name": "กิจกรรม #แม่กลองต้องขยับ โดยกลุ่มสมุทรสงครามปลดแอก",
      "by": 2,
      "date": "08-08-2563",
      "place": "บริเวณหน้าธนาคารออมสิน สาขาใหญ่ ตรงข้ามสวนสุขภาพ ศาลากลาง จ.สมุทรสงคราม",
      "reason": "ขับไล่เผด็จการ พร้อมสนับสนุน 3 ข้อเรียกร้องของคณะประชาชนปลดแอก",
      "demand": "1. หยุดคุกคามประชาชน\n2. ร่างรัฐธรรมนูญใหม่\n3. ยุบสภา",
      "coordinates": {
        "lat": 13.68976,
        "lng": 101.069488
      }
    },
    {
      "id": 157,
      "type": "b",
      "name": "กิจกรรม “ยโสธรบ่ออนซอนเผด็จการ” โดยกลุ่ม “ให้มันจบที่รุ่นเรายโสธร” และ “กลุ่มประชาชนปลดแอกยโสธร”",
      "by": 2,
      "date": "08-08-2563",
      "place": "ลานข้างบริเวณห้องประชุม OTOP ในสวนสาธารณะพญาแถน จังหวัดยโสธร",
      "reason": "เรียกร้องให้รัฐหยุดคุกคามประชาชน ยุบสภา ร่างใหม่รัฐธรรมนูญ ปล่อยตัวนักกิจกรรมทางการ และหยุดการพัฒนาที่ทำลายวิถีชีวิตชุมชน",
      "demand": "1. หยุดคุกคามประชาชน\n2. ร่างรัฐธรรมนูญใหม่\n3. ยุบสภา",
      "coordinates": {
        "lat": 7.626191,
        "lng": 99.564335
      }
    },
    {
      "id": 158,
      "type": "b",
      "name": "กิจกรรมแฟลชม็อบ “สารคามเผด็จการบ่ต้อง” โดยกลุ่มเครือข่ายประชาธิปไตยมหาสารคาม (คปมค.)",
      "by": 2,
      "date": "09-08-2563",
      "place": "ศาลหลักเมือง ต.ตลาด อ.เมือง จ.มหาสารคาม",
      "reason": "เพื่อขับไล่รัฐบาลเผด็จการ และปราศรัยถึงความล้มเหลวของรัฐบาลในการบริหารประเทศ พร้อมกับเขียนป้ายแสดงออกถึงความในใจ ที่จะให้รัฐบาลเผด็จการออกไป เรียกร้องให้รัฐบาลลาออก มีการเลือกตั้งใหม่ และแก้ไขรัฐธรรมนูญปี 2560 ",
      "demand": "1. เรียกร้องให้รัฐบาลยุบสภา \n2. ให้เจ้าหน้าที่รัฐหยุดคุกคามประชาชนในรูปแบบต่าง ๆ \n3. ให้ร่างรัฐธรรมนูญฉบับใหม่",
      "coordinates": {
        "lat": 16.178482,
        "lng": 103.310898
      }
    },
    {
      "id": 159,
      "type": "b",
      "name": "นักเรียน นักศึกษา ประชาชน ร่วมชุมนุม",
      "by": 2,
      "date": "09-08-2563",
      "place": "ประตูท่าแพ จังหวัดเชียงใหม่",
      "reason": "เพื่อเรียกร้องให้มีการร่างรัฐธรรมนูญใหม่ ยุบสภา และหยุดคุกคามประชาชน",
      "demand": "1. ร่างรัฐธรรมนูญใหม่\n2. ยุบสภา\n3. หยุดคุกคามประชาชน",
      "coordinates": {
        "lat": 18.864533573420296,
        "lng": 99.0444161015333
      }
    },
    {
      "id": 160,
      "type": "b",
      "name": "กิจกรรม #สะเร็นไม่สลิ่ม โดยกลุ่มเยาวชนสุรินทร์เพื่อประชาธิปไตย และกลุ่มนักเรียน นักศึกษา จากโรงเรียน สถาบันการศึกษาต่างๆ",
      "by": 1,
      "date": "10-08-2563",
      "place": "สวนเฉลิมพระเกียรติ 80 พรรษา จ.สุรินทร์",
      "reason": "เพื่อเคลื่อนไหวต่อต้านรัฐบาล พล.อ.ประยุทธ์ จันทร์โอชา และแสดงความสนับสนุนข้อเรียกร้อง 3 ข้อที่กลุ่มเยาวชนปลดแอกและสหภาพนักเรียน นิสิต นักศึกษาแห่งประเทศไทย (สนท.) ประกาศในการชุมนุมใหญ่ที่อนุสาวรีย์ประชาธิปไตยเมื่อวันที่ 18 กรกฎาคม 2563 ได้แก่ ยุบสภา แก้ไขรัฐธรรมนูญให้เป็นประชาธิปไตย และการยุติการคุกคามประชาชน ",
      "demand": "1. เรียกร้องให้รัฐบาลยุบสภา \n2. ให้เจ้าหน้าที่รัฐหยุดคุกคามประชาชนในรูปแบบต่าง ๆ \n3. ให้ร่างรัฐธรรมนูญฉบับใหม่",
      "coordinates": {
        "lat": 13.71841,
        "lng": 100.542101
      }
    },
    {
      "id": 161,
      "type": "b",
      "name": "กิจกรรมชูกระดาษเปล่า ของกลุ่มนักเรียนโรงเรียนสตรีศึกษา จังหวัดร้อยเอ็ด",
      "by": 1,
      "date": "10-08-2563",
      "place": "โรงเรียนสตรีศึกษา จังหวัดร้อยเอ็ด",
      "reason": "เพื่อแสดงจุดยืนต่อต้านเผด็จการ",
      "demand": "",
      "coordinates": {
        "lat": 16.042312,
        "lng": 103.658401
      }
    },
    {
      "id": 162,
      "type": "b",
      "name": "การชุมนุม “กาฬสินธุ์สิบ่ทน” โดยกลุ่มกาฬสินธุ์สิบ่ทน",
      "by": 1,
      "date": "11-08-2563",
      "place": "สวนสาธารณะกุดน้ำกิน จ.กาฬสินธุ์",
      "reason": "เพื่อเรียกร้องให้รัฐบาลหยุดคุกคามประชาชน ยุบสภา และแก้ไขรัฐธรรมนูญ",
      "demand": "1. หยุดคุกคามประชาชน\n2. ร่างรัฐธรรมนูญใหม่\n3. ยุบสภา",
      "coordinates": {
        "lat": 16.427814,
        "lng": 103.49801
      }
    },
    {
      "id": 163,
      "type": "b",
      "name": "กิจกรรมออกเรือ “ไล่ทรราช” โดยภาคีกลุ่มนักศึกษา",
      "by": 1,
      "date": "11-08-2563",
      "place": "สนามหญ้าหน้าตึก 24 (ตึกเรือใบ) ม.หอการค้าไทย กรุงเทพมหานคร",
      "reason": "แสดงความเห็นเรื่องสิทธิเสรีภาพของประชาชน และการใช้กฎหมายของรัฐที่มีการคุกคามประชาชนที่ออกมาแสดงความเห็นทางการเมือง ตลอดจนวิพากษ์วิจารณ์การทำงานของรัฐบาล รวมถึงเสนอข้อเรียกร้องไปยังรัฐบาล",
      "demand": "1. แก้ไขรัฐธรรมนูญในประเด็นหัวข้อการได้มาซึ่งนายกรัฐมนตรีจากคนนอก พร้อมเรียกร้องให้นายกรัฐมนตรีต้องมาจากการเลือกตั้งและเป็นสส.เท่านั้น\n2. ยกเลิกแผนยุทธศาสตร์ชาติ 20 ปี\n3. ยกเลิกแผนปฎิรูปประเทศ\n4. ยกเลิกการปกครองส่วนท้องถิ่นพิเศษ \n5. ยกเลิก มาตรา 279 ที่ว่าด้วยการลบล้างผลพวงการรัฐประหาร หรือบรรดาอำนาจและการกระทำของคณะรัฐประหารที่ถูกรับรองว่าถูกต้อง",
      "coordinates": {
        "lat": 8.48,
        "lng": 4.62
      }
    },
    {
      "id": 164,
      "type": "b",
      "name": "กลุ่มมศว. คนรุ่นเปลี่ยนนัดจัดกิจกรรม",
      "by": 1,
      "date": "13-08-2563",
      "place": "ลานเทาแดง มหาวิทยาลัยศรีนครินทร์วิโรฒ ประสานมิตร กรุงเทพมหานคร",
      "reason": "เพื่อเรียกร้องให้แก้ไขรัฐธรรมนูญ, ยุบสภาและ หยุดคุกคามประชาชน โดยระหว่างการดำเนินการต้องไม่มีการรัฐประหารและรัฐบาลแห่งชาติ",
      "demand": "1. แก้ไขรัฐธรรมนูญ\n2. ยุบสภา\n3. หยุดคุกคามประชาชน ",
      "coordinates": {
        "lat": 13.89914866521054,
        "lng": 100.59286847437767
      }
    },
    {
      "id": 165,
      "type": "b",
      "name": "กิจกรรม #ขีดเส้นตายไล่รัฐบาลเผด็จการ #รามคำแหงจะไม่ทน โดยเครือข่ายรามคำแหงเพื่อประชาธิปไตย",
      "by": 1,
      "date": "14-08-2563",
      "place": "ลานพ่อขุน มหาวิทยาลัยรามคำแหง กรุงเทพมหานคร",
      "reason": "ขับไล่รัฐบาล",
      "demand": "",
      "coordinates": {
        "lat": 13.875025869518211,
        "lng": 100.68844415395058
      }
    },
    {
      "id": 166,
      "type": "b",
      "name": "นักเรียนเตรียมอุดมฯ จัดกิจกรรม ชูกระดาษขาวหน้าเสาธง",
      "by": 1,
      "date": "14-08-2563",
      "place": "โรงเรียนเตรียมอุดมศึกษา กรุงเทพมหานคร",
      "reason": "ขับไล่รัฐบาล",
      "demand": "",
      "coordinates": {
        "lat": 13.889511973466508,
        "lng": 100.62023144075563
      }
    },
    {
      "id": 167,
      "type": "b",
      "name": "กิจกรรม เบื่อแล้วเฟรชชี่ปีนี้ขอม็อบ",
      "by": 1,
      "date": "14-08-2563",
      "place": "ลาน 2 รัชกาล จุฬาลงกรณ์มหาวิทยาลัย กรุงเทพมหานคร",
      "reason": "ขับไล่รัฐบาล",
      "demand": "",
      "coordinates": {
        "lat": 13.737431,
        "lng": 100.53147
      }
    },
    {
      "id": 168,
      "type": "b",
      "name": "การชุมนุมให้กำลังใจพริษฐ์ที่สน.สำราญราษฎร์",
      "by": 2,
      "date": "14-08-2563",
      "place": "สน.สำราญราษฎร์ กรุงเทพมหานคร",
      "reason": "เพื่อให้กำลังใจพริษฐ์ ชิวารักษ์ นักกิจกรรมที่ถูกจับกุมในคดียุยงปลุกปั่นจากการเข้าร่วมชุมนุมเยาวชนปลดแอก",
      "demand": "1. หยุดคุกคามประชาชน\n2. ปล่อยเพื่อนเรา",
      "coordinates": {
        "lat": 13.792691820976831,
        "lng": 100.53268014794796
      }
    },
    {
      "id": 169,
      "type": "b",
      "name": "กิจกรรม Flash Mob ภายใต้สโลแกน “เมื่อเขาอยากให้เราเงียบ เราก็จะเงียบ #พะยูนปลดแอก #ให้มันจบที่รุ่นเรา” โดยกลุ่ม Trang Against Dictatorship (TAD)",
      "by": 2,
      "date": "15-08-2563",
      "place": "สวนทับเที่ยง อ.เมือง จ.ตรัง",
      "reason": "ร่วมกันใส่เสื้อดำเพื่อแสดงพลังแห่งประชาธิปไตย และแสดงจุดยืนไม่เอาการรัฐประหารและรัฐบาลแห่งชาติ",
      "demand": "1. หยุดคุกคามประชาชนที่ออกมาใช้สิทธิเสรีภาพทางประชาธิปไตย \n2. หากจำเป็นต้องเขียนรัฐธรรมนูญใหม่ ต้องมาจากเจตจำนงของประชาชนและเพื่อประชาชนอย่างแท้จริง \n3. รัฐบาลต้องประกาศยุบสภาเพื่อเป็นการเปิดทางให้กับประชาชนแสดงเจตจำนง ได้อย่างมีสิทธิเสรีภาพอย่างถูกต้องตามกฎหมาย",
      "coordinates": {
        "lat": 7.567349,
        "lng": 99.644263
      }
    },
    {
      "id": 170,
      "type": "b",
      "name": "การจัดชุมนุม \"ขีดเส้นตายไล่เผด็จการ\" ของคณะประชาชนปลดแอก",
      "by": 2,
      "date": "16-08-2563",
      "place": "อนุสาวรีย์ประชาธิปไตย และบนถนนราชดำเนินกลางตั้งแต่อนุสาวรีย์ฯ ถึงแยกคอกวัว กรุงเทพมหานคร",
      "reason": "ยกระดับการชุมนุมสืบเนื่องจากการชุมนุมของกลุ่มเยาวชนปลดแอก เมื่อวันที่ 18 ก.ค. 2563 ตาม 3 ข้อเรียกร้อง 2 จุดยืน และ 1 ความฝัน ",
      "demand": "1. หยุดคุกคามประชาชน\n2. ร่างรัฐธรรมนูญใหม่\n3. ยุบสภา\n4. ระบอบประชาธิปไตยที่มีพระมหากษัตริย์อยู่ภายใต้รัฐธรรมนูญ",
      "coordinates": {
        "lat": 13.89217699544343,
        "lng": 100.53673694946161
      }
    },
    {
      "id": 171,
      "type": "b",
      "name": "กิจกรรม #ชาวอุบลไม่ทนเฉย",
      "by": 2,
      "date": "16-08-2563",
      "place": "ศาลหลักเมือง จังหวัดอุบลราชธานี จ.อุบลราชธานี",
      "reason": "เรียกร้องแก้ไขรัฐธรรมนูญ ขับไล่รัฐบาล หรือบุคคลในรัฐบาล และมาให้กำลังใจคณะประชาชนปลดแอกที่จัดการชุมนุมในวันเดียวกัน รวมถึงสนับสนุน 3 ข้อเรียกร้อง 2 จุดยืน และ 1 ความฝันของคณะประชาชนปลดแอก",
      "demand": "",
      "coordinates": {
        "lat": 15.443041192335185,
        "lng": 104.89910255277067
      }
    },
    {
      "id": 172,
      "type": "b",
      "name": "กิจกรรม #เลิกเรียนไปกระทรวง ของกลุ่มนักเรียนเลว",
      "by": 1,
      "date": "19-08-2563",
      "place": "หน้ากระทรวงศึกษาธิการ กรุงเทพมหานคร",
      "reason": "ผูกโบขาวให้กระทรวงฯ ชูสามนิ้วร้องเพลงชาติ และมาเป่านกหวีดไล่ รมว.ศึกษาธิการ และเรียกร้องให้แก้ไขรัฐธรรมนูญ ยุบสภา และหยุดคุกคามประชาชน",
      "demand": "1. แก้ไขรัฐธรรมนูญ \n2. ยุบสภา \n3. หยุดคุกคามประชาชน",
      "coordinates": {
        "lat": 14.025710047467951,
        "lng": 100.53223396619606
      }
    },
    {
      "id": 173,
      "type": "b",
      "name": "กิจกรรม #ลาดกระบังชังเผด็จการ",
      "by": 1,
      "date": "19-08-2563",
      "place": "สถานีคนเดิน สถาบันเทคโนโลยีพระจอมเกล้าลาดกระบัง กรุงเทพมหานคร",
      "reason": "เพื่อเรียกร้องให้แก้ไขรัฐธรรมนูญ, ยุบสภาและหยุดคุกคามประชาชน และแสดงจุดยืนว่า ระหว่างดำเนินการตามข้อเรียกร้องต้องไม่รัฐประหารและไม่มีรัฐบาลแห่งชาติ",
      "demand": "1. หยุดคุกคามประชาชน\n2. ร่างรัฐธรรมนูญใหม่ \n3. ยุบสภา",
      "coordinates": {
        "lat": 13.977396468159858,
        "lng": 100.5273017583189
      }
    },
    {
      "id": 174,
      "type": "b",
      "name": "นักเรียนมัธยมศึกษาโรงเรียนสวนกุหลาบวิทยาลัย จังหวัดนนทบุรี แสดงออกเชิงสัญลักษณ์",
      "by": 1,
      "date": "20-08-2563",
      "place": "โรงเรียนสวนกุหลาบวิทยาลัย จ.นนทบุรี",
      "reason": "เพื่อแสดงออกเชิงสัญลักษณ์ \"ไม่เอารัฐบาลเผด็จการ\"",
      "demand": "",
      "coordinates": {
        "lat": 13.743030999999998,
        "lng": 100.498814
      }
    },
    {
      "id": 175,
      "type": "b",
      "name": "กิจกรรม #อยุธยาจะไม่ทนอีกต่อไป",
      "by": 2,
      "date": "21-08-2563",
      "place": "ศาลากลางจังหวัดพระนครศรีอยุธยาหลังเก่า จ.พระนครศรีอยุธยา",
      "reason": "เพื่อแสดงจุดยืนเห็นด้วยตามข้อเรียกสามข้อและสองจุดยืนตามคณะประชาชนปลดแอก",
      "demand": "1. หยุดคุกคามประชาชน\n2. ร่างรัฐธรรมนูญใหม่ \n3. ยุบสภา",
      "coordinates": {
        "lat": 14.132248,
        "lng": 100.533099
      }
    },
    {
      "id": 176,
      "type": "b",
      "name": "นักเรียนมัธยมฯ กำแพงเพชร ชูกระดาษขาว",
      "by": 1,
      "date": "21-08-2563",
      "place": "โรงเรียนสองแห่งในจังหวัดกำแพงเพชร จ.กำแพงเพชร",
      "reason": "เพื่อต่อต้านเผด็จการและแสดงจุดยืนสนับสนุนข้อเรียกร้องของคณะประชาชนปลดแอก",
      "demand": "",
      "coordinates": {
        "lat": 16.473785,
        "lng": 99.530143
      }
    },
    {
      "id": 177,
      "type": "b",
      "name": "กิจกรรม ชู 3 นิ้วไล่เผด็จการ โดยกลุ่ม มศว. คนรุ่นเปลี่ยน",
      "by": 1,
      "date": "22-08-2563",
      "place": "สกายวอล์ก สี่แยกปทุมวัน กรุงเทพมหานคร",
      "reason": "ทำกิจกรรมชู 3 นิ้วไล่เผด็จการเพื่อแสดงจุดยืนว่า เจ้าหน้าที่รัฐต้องหยุดคุกคามประชาชน นักเรียน นิสิต นักศึกษา และเพื่อยืนหยัดถึงสามข้อเรียกร้องของคณะประชาชนปลดแอก",
      "demand": "1. หยุดคุกคามประชาชน\n2. ร่างรัฐธรรมนูญใหม่ \n3. ยุบสภา",
      "coordinates": {
        "lat": 13.850791637009651,
        "lng": 100.60455719143445
      }
    },
    {
      "id": 178,
      "type": "b",
      "name": "การจัดชุมนุมชาวอุบลไม่ทนเฉย โดยกลุ่มคณะอุบลปลดแอก",
      "by": 2,
      "date": "22-08-2563",
      "place": "บริเวณศาลหลักเมือง อ.เมือง จ.อุบลราชธานี",
      "reason": "เพื่อสนับสนุนข้อเรียกร้องให้ พลเอกประยุทธ์จันทร์โอชา นายกรัฐมนตรี ประกาศยุบสภา ยกเลิก สว.และให้มีการร่างรัฐธรรมนูญฉบับใหม่",
      "demand": "1. พลเอกประยุทธ์จันทร์โอชา นายกรัฐมนตรี ประกาศยุบสภา\n2. ยกเลิก สว. \n3. ให้มีการร่างรัฐธรรมนูญฉบับใหม่",
      "coordinates": {
        "lat": 15.465118027590751,
        "lng": 104.90763824249925
      }
    },
    {
      "id": 179,
      "type": "b",
      "name": "กิจกรรม #เพราะทุกคนคือแกนนำ โดยกลุ่มนิสิตมหาวิทยาลัยเกษตรศาสตร์ ภาคีนักศึกษามหาวิทยาลัยกรุงเทพ กลุ่มประชาคมศิลปากรเพื่อประชาธิปไตย (SCFD) และ พะยอมเก๋า",
      "by": 1,
      "date": "23-08-2563",
      "place": "ลานคนเมือง กรุงเทพมหานคร",
      "reason": "จุดประสงค์ของการจัดงานเพราะทุกคนคือแกนนํา\n1. ผลักดันเสรีภาพในการแสดงออกและการแสดงความคิดเห็นและสิทธิมนุษยชนทุกข้อ\n2. ยืนยันข้อเรียกร้องด้านความเป็นธรรมในกระบวนการยุติธรรม\n3. เพื่อกระตุ้นเตือนทางสังคมและรณรงค์เพื่อความเป็นธรรม\nรวมถึงย้ำว่า ประชาชนต้องมีเสรีภาพในการแสดงออก และเสนอว่า เราทุกคนเป็นแกนนำได้เพราะเราทุกคนร่วมเป็นกระบอกเสียงในการต่อสู้ได",
      "demand": "ให้รัฐบาล \"หยุดคุกคามประชาชน\" ที่ออกมาใช้สิทธิและเสรีภาพตามหลักการประชาธิปไตย  ",
      "coordinates": {
        "lat": 13.751417,
        "lng": 100.50049
      }
    },
    {
      "id": 180,
      "type": "b",
      "name": "กิจกรรม #มอชอของัดเผด็จการ โดยประชาคมมอชอ",
      "by": 1,
      "date": "24-08-2563",
      "place": "ศาลาอ่างแก้ว มหาวิทยาลัยเชียงใหม่ จ.เชียงใหม่",
      "reason": "สนับสนุนข้อเรียกร้องของคณะประชาชนปลดแอก",
      "demand": "1. หยุดคุกคามประชาชน\n2. ร่างรัฐธรรมนูญใหม่\n3. ยุบสภา\n4. ระบอบประชาธิปไตยที่มีพระมหากษัตริย์อยู่ภายใต้รัฐธรรมนูญ",
      "coordinates": {
        "lat": 18.915983478032636,
        "lng": 99.02780546329053
      }
    },
    {
      "id": 181,
      "type": "b",
      "name": "กลุ่มดาวดินสามัญชนนัดรวมตัวผู้ถูกกล่าวหาคดีชุมนุมของเยาวชนปลดแอกและผู้มาให้กำลังใจเดินเท้าไปรับทราบข้อกล่าวหา",
      "by": 2,
      "date": "28-08-2563",
      "place": " สถานีตำรวจนครบาลสำราญราษฎร์ กรุงเทพมหานคร",
      "reason": "เพื่อร่วมกันเดินไปรับทราบข้อกล่าวหาในคดีเยาวชนปลดแอก",
      "demand": "หยุดคุกคามประชาชน",
      "coordinates": {
        "lat": 13.751777,
        "lng": 100.503808
      }
    },
    {
      "id": 182,
      "type": "b",
      "name": "กิจกรรม #สมุทรปราการดีดนิ้วไล่เผด็จการ",
      "by": 2,
      "date": "30-08-2563",
      "place": "หอชมเมืองสมุทรปราการ จ.สมุทรปราการ",
      "reason": "เพื่อแสดงความเห็นด้วยในข้อเรียกร้องและจุดยืนตามคณะประชาชนปลดแอก และความฝันที่จะปฏิรูปสถาบันฯ",
      "demand": "1. หยุดคุกคามประชาชน\n2. ร่างรัฐธรรมนูญใหม่\n3. ยุบสภา\n4. ระบอบประชาธิปไตยที่มีพระมหากษัตริย์อยู่ภายใต้รัฐธรรมนูญ",
      "coordinates": {
        "lat": 13.598593,
        "lng": 100.600349
      }
    },
    {
      "id": 183,
      "type": "b",
      "name": "กิจกรรม #คนใต้แต่ไม่อยู่ใต้ตีนเผด็จการ",
      "by": 1,
      "date": "30-08-2563",
      "place": "บริเวณลานบิซมอลล์ มหาวิทยาลัยสงขลานครินทร์ จ.สงขลา",
      "reason": "สนับสนุนข้อเรียกร้องของคณะประชาชนปลดแอก",
      "demand": "1. หยุดคุกคามประชาชน\n2. ร่างรัฐธรรมนูญใหม่\n3. ยุบสภา",
      "coordinates": {
        "lat": 6.572623237703355,
        "lng": 100.51199868344341
      }
    },
    {
      "id": 184,
      "type": "b",
      "name": "กิจกรรม #มอศอวอไม่เอาเผด็จการ โดยนิสิตในนาม ทีมมศว (ไม่มีจุด)",
      "by": 1,
      "date": "31-08-2563",
      "place": "มหาวิทยาลัยศรีนครินทรวิโรฒ จ.นครนายก",
      "reason": "เพื่อเรียกร้องตามคณะประชาชนปลดแอกและให้ยกเลิกโครงการเตาปฏิกรณ์นิวเคลียร์ อ.องครักษ์ จ.นครนายก",
      "demand": "1. หยุดคุกคามประชาชน\n2. ร่างรัฐธรรมนูญใหม่\n3. ยุบสภา\n4. รัฐต้องยกเลิกโครงการเตาปฏิกรณ์นิวเคลียร์ อ.องครักษ์ จ.นครนายก",
      "coordinates": {
        "lat": 13.918482818291928,
        "lng": 100.66438454112816
      }
    },
    {
      "id": 185,
      "type": "b",
      "name": "ประชาชนชุมนุมให้กำลังใจจุฑาทิพย์ที่ถูกจับกุมคดีเยาวชนปลดแอก",
      "by": 2,
      "date": "01-09-2563",
      "place": "ศาลอาญารัชดาฯ กรุงเทพมหานคร",
      "reason": "เพื่อให้กำลังใจจุฑาทิพย์ที่ถูกหมายจับในคดีการชุมนุมของเยาวชนปลดแอกเมื่อวันที่ 18 กรกฎาคม 2563",
      "demand": "หยุดคุกคามประชาชน",
      "coordinates": {
        "lat": 13.866848123980418,
        "lng": 100.53874710106777
      }
    },
    {
      "id": 186,
      "type": "b",
      "name": "กิจกรรม #รังสิตไม่ใช่ขี้ข้าเผด็จการ โดยกลุ่มรังสิตพะยอมเก๋า",
      "by": 1,
      "date": "02-09-2563",
      "place": "ลานหลังพระศรีฯ ตึก 6 มหาวิทยาลัยรังสิต จ.ปทุมธานี",
      "reason": "สนับสนุนข้อเรียกร้องของคณะประชาชนปลดแอก",
      "demand": "1. หยุดคุกคามประชาชน\n2. ร่างรัฐธรรมนูญใหม่\n3. ยุบสภา\n4. ข้อเสนอเพิ่มเติมเกี่ยวกับสถาบันพระมหากษัตริย์",
      "coordinates": {
        "lat": 19.906507,
        "lng": 99.825957
      }
    },
    {
      "id": 187,
      "type": "b",
      "name": "สนท.จัดกิจกรรมให้กำลังใจทนายอานนท์และภาณุพงศ์",
      "by": 1,
      "date": "03-09-2563",
      "place": "เรือนจำพิเศษกรุงเทพมหานคร กรุงเทพมหานคร",
      "reason": "เพื่อให้กำลังใจอานนท์ นำภา ทนายความสิทธิมนุษยชนและภาณุพงศ์ จาดนอก แกนนำเยาวชนตะวันออกเพื่อประชาธิปไตย",
      "demand": "หยุดคุกคามประชาชน",
      "coordinates": {
        "lat": 13.7490143125,
        "lng": 100.503182625
      }
    },
    {
      "id": 188,
      "type": "b",
      "name": "สนท.เรียกร้องให้ปล่อยตัวทนายอานนท์และภาณุพงศ์",
      "by": 1,
      "date": "04-09-2563",
      "place": "เรือนจำพิเศษกรุงเทพมหานคร กรุงเทพมหานคร",
      "reason": "เพื่อเรียกร้องให้ศาลมีคำสั่งปล่อยตัวอานนท์ นำภา ทนายความสิทธิมนุษยชนและภาณุพงศ์ จาดนอก แกนนำเยาวชนตะวันออกเพื่อประชาธิปไตยอย่างไม่มีเงื่อนไข",
      "demand": "หยุดคุกคามประชาชน",
      "coordinates": {
        "lat": 13.987115126457244,
        "lng": 100.5720876928282
      }
    },
    {
      "id": 189,
      "type": "b",
      "name": "การชุมนุม #หนูรู้หนูมันเลว ของกลุ่มนักเรียนเลวและเครือข่าย",
      "by": 1,
      "date": "05-09-2563",
      "place": "หน้ากระทรวงศึกษาธิการ กรุงเทพมหานคร",
      "reason": "เรียกร้องให้หยุดคุกคามนักเรียน, ยกเลิกกฎระเบียบล้าหลังและปฏิรูปการศึกษา โดยมีเงื่อนไขคือ หากทำไม่ได้ก็ขอให้รัฐมนตรีว่าการกระทรวงศึกษาธิการลาออกไป",
      "demand": "1. หยุดคุกคามนักเรียน\n2. ยกเลิกกฎระเบียบล้าหลัง\n3. ปฏิรูปการศึกษา",
      "coordinates": {
        "lat": 13.918227290272917,
        "lng": 100.54668017475787
      }
    },
    {
      "id": 190,
      "type": "b",
      "name": "สนท.เรียกร้องให้ปล่อยตัวทนายอานนท์และภาณุพงศ์",
      "by": 1,
      "date": "06-09-2563",
      "place": "เรือนจำพิเศษกรุงเทพมหานคร กรุงเทพมหานคร",
      "reason": "เพื่อเรียกร้องให้ศาลมีคำสั่งปล่อยตัวอานนท์ นำภา ทนายความสิทธิมนุษยชนและภาณุพงศ์ จาดนอก แกนนำเยาวชนตะวันออกเพื่อประชาธิปไตยอย่างไม่มีเงื่อนไข",
      "demand": "หยุดคุกคามประชาชน",
      "coordinates": {
        "lat": 13.957063093937302,
        "lng": 100.58873903418336
      }
    },
    {
      "id": 191,
      "type": "b",
      "name": "กิจกรรม #เสียงบริสุทธิ์บนกระดาษขาว",
      "by": 1,
      "date": "09-09-2563",
      "place": "โรงเรียนอุดรพิทยานุกูล โรงเรียนสตรีราชินูทิศ และโรงเรียนหมากแข้ง จ.อุดรธานี",
      "reason": "สนับสนุนข้อเรียกร้องของคณะประชาชนปลดแอก",
      "demand": "1. หยุดคุกคามประชาชน\n2. ร่างรัฐธรรมนูญใหม่\n3. ยุบสภา",
      "coordinates": {
        "lat": 17.4065445,
        "lng": 102.7817065
      }
    },
    {
      "id": 192,
      "type": "b",
      "name": "เครือข่ายสุรินทร์ อิน (in)ประชาธิปไตยนัดชุมนุม",
      "by": 2,
      "date": "11-09-2563",
      "place": "เวทีไผทสราญ จ.สุรินทร์",
      "reason": "สนับสนุนข้อเรียกร้องสามข้อตามคณะประชาชนปลดแอก และเรียกร้องให้ยกเลิกมาตรา 112",
      "demand": "1. หยุดคุกคามประชาชน \n2. ร่างรัฐธรรมนูญใหม่ \n3. ยุบสภาผู้แทนราษฎรแล้วเลือกตั้งใหม่ \n4. ยกเลิกมาตรา 112 ",
      "coordinates": {
        "lat": 15.17501500296067,
        "lng": 103.5390405872458
      }
    },
    {
      "id": 193,
      "type": "b",
      "name": "กลุ่มนักเรียนเลวปราศรัยเวทีสนามหลวง (ชุมนุม \"19 กันยา ทวงอำนาจคืนราษฎร\" ของกลุ่มแนวร่วมธรรมศาสตร์และการชุมนุม)",
      "by": 1,
      "date": "19-09-2563",
      "place": "สนามหลวง กรุงเทพมหานคร",
      "reason": "ย้ำ 3 ข้อเรียกร้อง และ 1 เงื่อนไข",
      "demand": "1. หยุดคุกคามนักเรียน\n2. ยกเลิกกฎระเบียบที่ล้าหลัง\n3. ปฏิรูปการศึกษาทั้งระบบ",
      "coordinates": {
        "lat": 13.885052976694151,
        "lng": 100.5462745229272
      }
    },
    {
      "id": 194,
      "type": "b",
      "name": "กิจกรรม #นํ้าเงินชมพูปลดแอก โดยกลุ่ม Udonpit Movement",
      "by": 1,
      "date": "21-09-2563",
      "place": "โรงเรียนอุดรพิทยานุกูล จ.อุดรธานี",
      "reason": "เพื่อการสร้างความตระหนักรู้ในเรื่องประชาธิปไตยและเรื่องสิทธิเสรีภาพ ผลักดันข้อเรียกร้องของคณะประชาชนปลดแอกและการแสดงจุดยืนทางการเมืองของนักเรียนและบุคคลากรในโรงเรียน รวมถึงกล่าวถึงปัญหาในสังคมไทยเพื่อผลักดันในทุกคนร่วมกันแก้ไข",
      "demand": "",
      "coordinates": {
        "lat": 17.455797296252474,
        "lng": 102.85159936752741
      }
    },
    {
      "id": 195,
      "type": "b",
      "name": "กิจกรรม \"จับ ส.ว.ลงหม้อ\" ของ \"คณะประชาชนปลดแอก\"",
      "by": 2,
      "date": "23-09-2563",
      "place": "Route : กองทัพบก, กระทรวงกลาโหม, กองทัพเรือ, กองทัพอากาศ, กองบัญชาการกองทัพไทย, สำนักงานตำรวจแห่งชาติ กรุงเทพมหานคร",
      "reason": "เดินทางด้วยรถติดเครื่องขยายเสียง และมีแกนนำหลายคนสลับกันปราศรัยไปตลอดทาง เริ่มตั้งแต่เวลา 11.00 น. และเมื่อไปถึงแต่ละจุดจะมีการทำพิธี เพื่อเป็นการแสดงจุดยืนไม่เห็นด้วยกับการที่ผบ. เหล่าทัพทั้ง 5 คนและ ผบ. ตร. ดำรงตำแหน่ง ส.ว.",
      "demand": "",
      "coordinates": {
        "lat": 13.913954,
        "lng": 100.617937
      }
    },
    {
      "id": 196,
      "type": "b",
      "name": "การจัดชุมนุม \"ไปสภาไล่ขี้ข้าศักดินา\" ของคณะประชาชนปลดแอก",
      "by": 2,
      "date": "24-09-2563",
      "place": "หน้ารัฐสภา กรุงเทพมหานคร",
      "reason": "เพื่อเรียกร้องให้ สมาชิกวุฒิสภา (ส.ว.) ลงมติเห็นด้วยกับการแก้ไขรัฐธรรมนูญ มาตรา 272 เพื่อยกเลิกอำนาจของ ส.ว. ในการเลือกนายกรัฐมนตรี ซึ่งเป็น 1 ใน 6 ญัตติร่างแก้ไขรัฐธรรมนูญ ที่อยู่ระหว่างพิจารณาของรัฐสภา เรียกร้อง สสร. ที่มาจากการมีส่วนร่วมของประชาชน และเรียกร้องการปฏิรูปสถาบันกษัตริย์",
      "demand": "1. ส.ว.ต้องให้ความร่วมมือกับส.ส.ใช้กระบวนการรัฐสภายกมือสนับสนุนแก้ไขมาตรา 256 เปิดทางให้แก้ไขรัฐธรรมนูญ และมาตรา 269272 แก้ไขที่มาและปรับลดอำนาจต่างๆของส.ว.เสียเพราะมาตราเหล่านี้เป็นที่มาของความอัปยศของประชาธิปไตยไทยอย่างที่ไม่เคยเป็นมาในประวัติศาสตร์\n2. แก้ไขรัฐธรรมนูญเพื่อเลือกตั้งส.ส.ร. ปราศจากการแต่งตั้ง ต้องไม่มีการสอดไส้เพื่อรักษาอำนาจเผด็จการทรราชย์ และผู้สนับสนุนการรัฐประหารและการสืบทอดอำนาจ เพื่อให้กระบวนการร่างรัฐธรรมนูญใหม่นั้นเป็นของประชาชนอย่างแท้จริง\n3. เพื่อให้ประเทศไทยกลับเข้าสู่ครรลองประชาธิปไตย จำเป็นจะต้อง #ปฏิรูปสถาบันกษัตริย์ จำกัดอำนาจสถาบันกษัตริย์ไม่ให้ล้นเกินระบอบประชาธิปไตย เปิดโอกาสให้แก้ไขรัฐธรรมนูญทุกหมวด ทุกมาตรา ไม่เว้นแม้แต่มาตราที่เกี่ยวข้องกับสถาบันกษัตริย์ เพื่อให้กษัตริย์อยู่ภายใต้รัฐธรรมนูญ ทั้งนี้เพื่อให้สถาบันกษัตริย์อยู่อย่างมั่นคงและงดงาม ",
      "coordinates": {
        "lat": 14.03438635783506,
        "lng": 100.53517514013461
      }
    },
    {
      "id": 197,
      "type": "b",
      "name": "#ม็อบ1ตุลา :#ชมพูพันธ์ุทิพย์แตกกิ่งใบ",
      "by": 1,
      "date": "01-10-2563",
      "place": "โรงเรียนเตรียมอุดมศึกษาพัฒนาการ กรุงเทพมหานคร",
      "reason": "เรียกร้องให้มีการแก้ไขปัญหาอำนาจนิยมในโรงเรียน การคุกคาม ล่วงละเมิดในโรงเรียน และปฏิรูปการศึกษา",
      "demand": "",
      "coordinates": {
        "lat": 13.729394,
        "lng": 100.6468855
      }
    },
    {
      "id": 198,
      "type": "b",
      "name": "กิจกรรม \"เส้นทางแห่งความเจ็บปวด\" ของกลุ่ม \"นักเรียนเลว\"",
      "by": 1,
      "date": "02-10-2563",
      "place": "โรงเรียนสามเสนวิทยาลัย, เตรียมอุดมศึกษา, เซนต์โยเซฟคอนแวนต์, เทพศิรินทร์ และวัดราชบพิธ และไปยังกระทรวงศึกษาธิการ",
      "reason": "นั่งรถแห่ไปยังโรงเรียนในกรุงเทพมหานคร พร้อมนำจดหมายลาออกให้รัฐมนตรีว่าการกระทรวงศึกษาธิการลงนาม",
      "demand": "1. หยุดคุกคามนักเรียน \n2. ยกเลิกกฎระเบียบที่ล้าหลัง\n3. ปฏิรูปการศึกษาทั้งระบบ ",
      "coordinates": {
        "lat": 13.726241,
        "lng": 100.53438349999999
      }
    },
    {
      "id": 199,
      "type": "b",
      "name": "กิจกรรม \"ครูลุยกระทรวงทวงพื้นที่ปลอดภัยในโรงเรียน\" โดยกลุ่มครูขอสอน",
      "by": 2,
      "date": "04-10-2563",
      "place": "กระทรวงศึกษาธิการ กรุงเทพมหานคร",
      "reason": "แสดงจุดยืนเชิงสัญลักษณ์โรงเรียนต้องเป็นพื้นที่ปลอดภัยเพื่อส่งเสียงถึงผู้ที่เกี่ยวข้องในทุกระดับให้ดำเนินการแก้ไขปัญหาความรุนแรงในโรงเรียนและอื่น ๆ อย่างจริงจัง และแสดงจุดยืนให้สถานศึกษาปฏิบัติตามหลักการของสิทธิมนุษยชน เพื่อให้สถานศึกษาเป็นพื้นที่ปลอดภัย เป็นพื้นที่สำหรับการพัฒนาผู้เรียนทั้งด้านร่างกาย อารมณ์ สังคม และสติปัญญา โดยใช้วิธีการที่ธำรงไว้ซึ่งศักดิ์ศรีความเป็นมนุษย์และเรียกร้องต่อกรณีการละเมิดสิทธิมนุษยชนในสถานศึกษาและการสร้างโรงเรียนเป็นพื้นที่ปลอดภัย",
      "demand": "",
      "coordinates": {
        "lat": 13.801487444006433,
        "lng": 100.58699702762159
      }
    },
    {
      "id": 200,
      "type": "b",
      "name": "กิจกรรม #อีสานลั่นกลองรบ โดยแนวร่วมนิสิตมมส.",
      "by": 1,
      "date": "04-10-2563",
      "place": "มหาวิทยาลัยมหาสารคาม จ.มหาสารคาม",
      "reason": "เรียกร้องให้คณะรัฐมนตรีและ ส.ว.ลาออกจากตำแหน่ง ร่างรัฐธรรมนูญฉบับประชาชน และปฎิรูปสถาบันกษัตริย์",
      "demand": "1. คณะรัฐมนตรีและ ส.ว.ลาออกจากตำแหน่ง \n2. ร่างรัฐธรรมนูญฉบับประชาชน โดยมีประชาชนเป็นผู้ร่าง\n3. ปฎิรูปสถาบันกษัตริย์ ให้อยู่ภายใต้รัฐธรรมนูญทั้งทางนิตินัยและพฤตินัย",
      "coordinates": {
        "lat": 16.340758023865547,
        "lng": 103.25335297543883
      }
    },
    {
      "id": 201,
      "type": "b",
      "name": "กิจกรรม #รำลึก44ปี 6 ตุลาลืมไม่ได้จำไม่ลง",
      "by": 2,
      "date": "06-10-2563",
      "place": "ศาลหลักเมือง จังหวัดอุบลราชธานี จ.อุบลราชธานี",
      "reason": "รำลึกเหตุการณ์ 6 ตุลา นำเสนอข้อเรียกร้องของคณะประชาชนปลดแอก",
      "demand": "",
      "coordinates": {
        "lat": 15.486037070180302,
        "lng": 104.8287447473384
      }
    },
    {
      "id": 202,
      "type": "b",
      "name": "กิจกรรม #ดอกสาระจะปะทะเผด็จการ โดยกลุ่มแซร่าวิดยาไม่เอาเผด็จการ",
      "by": 1,
      "date": "08-10-2563",
      "place": "โรงเรียนสารวิทยา กรุงเทพมหานคร",
      "reason": "แสดงออกเรื่องปัญหาการศึกษา",
      "demand": "",
      "coordinates": {
        "lat": 13.851469,
        "lng": 100.58336700000001
      }
    },
    {
      "id": 203,
      "type": "b",
      "name": "กิจกรรม \"รัฐธรรมนูญต้องมาจากประชาชน\" โดยเครือข่ายรามคำแหงเพื่อประชาธิปไตย",
      "by": 2,
      "date": "08-10-2563",
      "place": "มหาวิทยาลัยรามคำแหง กรุงเทพมหานคร",
      "reason": "เรียกร้องให้ร่างรัฐธรรมนูญใหม่ที่มาจากประชาชนอย่างแท้จริง",
      "demand": "1. ให้เข้าชื่อเสนอให้เปิดประชุมวิสามัญรัฐสภาเพื่อลงมติให้มีการแก้ไขรัฐธรรมนูญอย่างเร่งด่วน\n2. รัฐธรรมนูญต้องแก้ไขได้ทุกหมวด\n3. การแก้ไขรัฐธรรมนูญต้องตั้งส.ส.ร.มาร่างรัฐธรรมนูญและสมาชิกส.ส.ร.ต้องมาจากการเลือกตั้งของประชาชนทั้งหมด\n4. ต้องมีตัวแทนนักเรียน นิสิต นักศึกษา เป็นสมาชิก ส.ส.ร.\n5. ต้องมีตัวแทนนักเรียน นิสิต นักศึกษา เป็นกรรมาธิการยกร่างรัฐธรรมนูญเพื่อเปิดโอกาสให้เยาวชนคนหนุ่มสาวได้เขียนอนาคตประเทศด้วยมือของเขาเอง\n6. มีการรับฟังความคิดเห็นประชาชนอย่างอิสระและมีการทำประชามติรัฐธรรมนูญที่ร่างขึ้นมาใหม่\n7. รัฐธรรมนูญที่ร่างขึ้นมาใหม่ต้องมีเนื้อหาเป็นประชาธิปไตย\n8. เมื่อมีการประกาศใช้รัฐธรรมนูญแล้ว นายกรัฐมนตรีต้องประกาศยุบสภาเพื่อให้มีการเลือกตั้งตามรัฐธรรมนูญใหม่ทันที",
      "coordinates": {
        "lat": 13.82335746180208,
        "lng": 100.68404276749159
      }
    },
    {
      "id": 204,
      "type": "b",
      "name": "#ม็อบ9ตุลา : เชียงใหม่จะไม่ทน ครั้งที่ 3",
      "by": 1,
      "date": "09-10-2563",
      "place": "ประตูท่าแพ จ.เชียงใหม่",
      "reason": "เน้นย้ำ 3 ข้อเรียกร้องของประชาชนปลดแอก และเชิญชวนให้ประชาชนไปร่วมการชุมนุมใหญ่ที่ถนนราชดำเนิน วันที่ 16 ส.ค.2563 รวมถึงแจกหนังสือ \"สถาบันพระมหากษัตริย์กับสังคมไทย\" ฟรีจำนวน 100 เล่ม",
      "demand": "1. หยุดคุกคามประชาชน\n\n2. ร่างรัฐธรรมนูญใหม่\n\n3. ยุบสภา",
      "coordinates": {
        "lat": 18.93911179698214,
        "lng": 99.03774129416199
      }
    },
    {
      "id": 205,
      "type": "b",
      "name": "กิจกรรม #เยาวชนพัทยาลั่นกลองไล่เผด็จการ",
      "by": 1,
      "date": "10-10-2563",
      "place": "ชายหาดพัทยา จ.ชลบุรี",
      "reason": "เพื่อแสดงจุดยืนเรียกร้องให้ประเทศไทยมีระบอบการปกครองที่เป็นประชาธิปไตยที่สมบูรณ์",
      "demand": "",
      "coordinates": {
        "lat": 12.915258,
        "lng": 100.858891
      }
    },
    {
      "id": 206,
      "type": "b",
      "name": "#ม็อบ18ตุลา: ปล่อยเพื่อนเรา",
      "by": 2,
      "date": "18-10-2563",
      "place": "สภ.เมืองอุบลราชธานี จ.อุบลราชธานี",
      "reason": "เรียกร้องให้ปล่อยตัวทนายแชมป์ ว่าที่ ร.ต.ฉัตรชัย แก้วคำปอด",
      "demand": "หยุดคุกคามประชาชน",
      "coordinates": {
        "lat": 15.366344146962195,
        "lng": 104.84479380298595
      }
    },
    {
      "id": 207,
      "type": "b",
      "name": "#ม็อบ19ตุลา : เด็กเปรต",
      "by": 1,
      "date": "19-10-2563",
      "place": "ลานจตุรัสนครหาดใหญ่ (หอนาฬิกา) จ.สงขลา",
      "reason": "เรียกร้องให้มีการปฏิรูปการศึกษา และจะไม่หยุดการเคลื่อนไหวจนกว่าระบอบการศึกษาไทยและระบอบประชาธิปไตยจะมั่นคง",
      "demand": "1. ให้นักเรียนทุกคนมีสิทธิเสรีภาพในการแสดงออกหรือเรียกร้องใด ๆ ภายในโรงเรียนโดยเสรี\n2. ให้บุคลากรภายในโรงเรียนปกป้องและหยุดคุกคามนักเรียน \n3. ให้โรงเรียนเป็นพื้นที่ปลอดภัยสำหรับนักเรียนทุกคน",
      "coordinates": {
        "lat": 6.610984294841423,
        "lng": 101.8363817434973
      }
    },
    {
      "id": 208,
      "type": "b",
      "name": "กลุ่มนักเรียนเลว พร้อมแนวร่วมร่วมกันอ่านแถลงการณ์นักเรียนเลวและแนวร่วมองค์กรนักเรียน",
      "by": 1,
      "date": "06-11-2563",
      "place": "อนุสาวรีย์ประชาธิปไตย กรุงเทพมหานคร",
      "reason": "อ่านแถลงการณ์นักเรียนเลวและแนวร่วมองค์กรนักเรียน",
      "demand": "",
      "coordinates": {
        "lat": 13.848509791091528,
        "lng": 100.56017117272779
      }
    },
    {
      "id": 209,
      "type": "b",
      "name": "กิจกรรม \"ม็อบตุ้งติ้ง2\" ในธีม \"ไพร่พาเหรด\" โดยกลุ่ม \"เสรีเทยพลัส\" (#ม็อบ7พฤศจิกา : ไพร่พาเหรด)",
      "by": 1,
      "date": "07-11-2563",
      "place": " ซอย สีลม 2 กรุงเทพมหานคร",
      "reason": "เรียกร้องความเท่าเทียมทางเพศในสังคม และเรียกร้องให้สังคมยอมรับความหลากหลายทางเพศ รวมถึงต้องการทำลายแนวคิดชายเป็นใหญ่",
      "demand": "",
      "coordinates": {
        "lat": 41.891199,
        "lng": -87.655981
      }
    },
    {
      "id": 210,
      "type": "b",
      "name": "#ม็อบ14พฤศจิกา : เสริฟน้ำจิ้ม โดยกลุ่มนักเรียนเลว",
      "by": 1,
      "date": "14-11-2563",
      "place": " อนุสาวรีย์ประชาธิปไตย กรุงเทพมหานคร",
      "reason": "เพื่อประท้วงและขับไล่นายณัฏฐพล ทีปสุวรรณ รัฐมนตรีว่าการกระทรวงศึกษาธิการ",
      "demand": "",
      "coordinates": {
        "lat": 14.01070746037698,
        "lng": 100.57371802748705
      }
    },
    {
      "id": 211,
      "type": "b",
      "name": "#ม็อบ21พฤศจิกา #บ๊ายบายไดโนเสาร์ โดยกลุ่มนักเรียนเลว",
      "by": 1,
      "date": "21-11-2563",
      "place": "BTS สยาม กรุงเทพมหานคร",
      "reason": "พูดถึงประเด็นปัญหาต่าง ๆ ในโรงเรียน และเรียกร้องให้รัฐโอบอุ้มความหลากหลายในทุกมิติ ทั้งเรื่องการศึกษา ศาสนา เศรษฐกิจ และการคมนาคม",
      "demand": "",
      "coordinates": {
        "lat": 13.745661,
        "lng": 100.53424
      }
    },
    {
      "id": 212,
      "type": "b",
      "name": "การชุมนุม #เลิกเรียนไปกระทรวง ของกลุ่มนักเรียนเลว",
      "by": 1,
      "date": "01-12-2563",
      "place": "หน้ากระทรวงศึกษาธิการ กรุงเทพมหานคร",
      "reason": "เพื่อแสดงจุดยืนในการให้กระทรวงศึกษาธิการเลิกบังคับการแต่งกายชุดเครื่องแบบนักเรียน และร่วมกันเต้น \"นักเรียนลุยไฟ\" ซึ่งมีเนื้อหาพูดถึงปัญหาต่าง ๆ ในระบบการศึกษา และสะท้อนไปยังกระทรวงศึกษาธิการ",
      "demand": "",
      "coordinates": {
        "lat": 14.02404903148103,
        "lng": 100.55696218891183
      }
    },